[{"id":"3","ident":"AGGH","type":"large_airport","name":"Honiara International Airport","name_arbic":"مطار هونيارا الدولي","latitude_deg":"-9.428","longitude_deg":"160.054993","elevation_ft":"28","continent":"OC","iso_country":"SB","country":"Solomon Islands","country_arbic":"جزر سليمان","iso_region":"SB-GU","municipality":"Honiara","municipality_arbic":"هونيارا","scheduled_service":"yes","icao_code":"AGGH","iata_code":"HIR","gps_code":"AGGH","local_code":"nan"},{"id":"67","ident":"AYPY","type":"large_airport","name":"Port Moresby Jacksons International Airport","name_arbic":"مطار بورت مورسبي جاكسونز الدولي","latitude_deg":"-9.443380356","longitude_deg":"147.2200012","elevation_ft":"146","continent":"OC","iso_country":"PG","country":"Papua New Guinea","country_arbic":"بابوا غينيا الجديدة","iso_region":"PG-NCD","municipality":"Port Moresby","municipality_arbic":"بورت مورسبي","scheduled_service":"yes","icao_code":"AYPY","iata_code":"POM","gps_code":"AYPY","local_code":"nan"},{"id":"123","ident":"BIKF","type":"large_airport","name":"Keflavik International Airport","name_arbic":"مطار كيفلافيك الدولي","latitude_deg":"63.985001","longitude_deg":"-22.6056","elevation_ft":"171","continent":"EU","iso_country":"IS","country":"Iceland","country_arbic":"أيسلندا","iso_region":"IS-2","municipality":"Reykjavík","municipality_arbic":"ريكيافيك","scheduled_service":"yes","icao_code":"BIKF","iata_code":"KEF","gps_code":"BIKF","local_code":"nan"},{"id":"1717","ident":"CYEG","type":"large_airport","name":"Edmonton International Airport","name_arbic":"مطار إدمونتون الدولي","latitude_deg":"53.3097","longitude_deg":"-113.580002","elevation_ft":"2373","continent":"nan","iso_country":"CA","country":"Canada","country_arbic":"كندا","iso_region":"CA-AB","municipality":"Edmonton","municipality_arbic":"إدمونتون","scheduled_service":"yes","icao_code":"CYEG","iata_code":"YEG","gps_code":"CYEG","local_code":"CYEG"},{"id":"1770","ident":"CYHZ","type":"large_airport","name":"Halifax \/ Stanfield International Airport","name_arbic":"مطار هاليفاكس \/ ستانفيلد الدولي","latitude_deg":"44.88079834","longitude_deg":"-63.50859833","elevation_ft":"477","continent":"nan","iso_country":"CA","country":"Canada","country_arbic":"كندا","iso_region":"CA-NS","municipality":"Halifax","municipality_arbic":"هاليفاكس","scheduled_service":"yes","icao_code":"CYHZ","iata_code":"YHZ","gps_code":"CYHZ","local_code":"nan"},{"id":"1840","ident":"CYOW","type":"large_airport","name":"Ottawa Macdonald-Cartier International Airport","name_arbic":"مطار أوتاوا ماكدونالد كارتييه الدولي","latitude_deg":"45.322498","longitude_deg":"-75.669197","elevation_ft":"374","continent":"nan","iso_country":"CA","country":"Canada","country_arbic":"كندا","iso_region":"CA-ON","municipality":"Ottawa","municipality_arbic":"أوتاوا","scheduled_service":"yes","icao_code":"CYOW","iata_code":"YOW","gps_code":"CYOW","local_code":"YOW"},{"id":"1864","ident":"CYQB","type":"large_airport","name":"Quebec Jean Lesage International Airport","name_arbic":"مطار كيبيك جان ليساج الدولي","latitude_deg":"46.7911","longitude_deg":"-71.393303","elevation_ft":"244","continent":"nan","iso_country":"CA","country":"Canada","country_arbic":"كندا","iso_region":"CA-QC","municipality":"Quebec","municipality_arbic":"كيبيك","scheduled_service":"yes","icao_code":"CYQB","iata_code":"YQB","gps_code":"CYQB","local_code":"YQB"},{"id":"1928","ident":"CYUL","type":"large_airport","name":"Montreal \/ Pierre Elliott Trudeau International Airport","name_arbic":"مونتريال \/ مطار بيير إليوت ترودو الدولي","latitude_deg":"45.467837","longitude_deg":"-73.742294","elevation_ft":"118","continent":"nan","iso_country":"CA","country":"Canada","country_arbic":"كندا","iso_region":"CA-QC","municipality":"Montréal","municipality_arbic":"مونتريال","scheduled_service":"yes","icao_code":"CYUL","iata_code":"YUL","gps_code":"CYUL","local_code":"YUL"},{"id":"1941","ident":"CYVR","type":"large_airport","name":"Vancouver International Airport","name_arbic":"مطار فانكوفر الدولي","latitude_deg":"49.19390106","longitude_deg":"-123.1839981","elevation_ft":"14","continent":"nan","iso_country":"CA","country":"Canada","country_arbic":"كندا","iso_region":"CA-BC","municipality":"Vancouver","municipality_arbic":"فانكوفر","scheduled_service":"yes","icao_code":"CYVR","iata_code":"YVR","gps_code":"CYVR","local_code":"nan"},{"id":"1946","ident":"CYWG","type":"large_airport","name":"Winnipeg \/ James Armstrong Richardson International Airport","name_arbic":"وينيبيغ \/ مطار جيمس أرمسترونج ريتشاردسون الدولي","latitude_deg":"49.90999985","longitude_deg":"-97.23989868","elevation_ft":"783","continent":"nan","iso_country":"CA","country":"Canada","country_arbic":"كندا","iso_region":"CA-MB","municipality":"Winnipeg","municipality_arbic":"وينيبيغ","scheduled_service":"yes","icao_code":"CYWG","iata_code":"YWG","gps_code":"CYWG","local_code":"YWG"},{"id":"1973","ident":"CYYC","type":"large_airport","name":"Calgary International Airport","name_arbic":"مطار كالجاري الدولي","latitude_deg":"51.118822","longitude_deg":"-114.009933","elevation_ft":"3557","continent":"nan","iso_country":"CA","country":"Canada","country_arbic":"كندا","iso_region":"CA-AB","municipality":"Calgary","municipality_arbic":"كالجاري","scheduled_service":"yes","icao_code":"CYYC","iata_code":"YYC","gps_code":"CYYC","local_code":"nan"},{"id":"1986","ident":"CYYT","type":"large_airport","name":"St. John's International Airport","name_arbic":"مطار سانت جون الدولي","latitude_deg":"47.618599","longitude_deg":"-52.7519","elevation_ft":"461","continent":"nan","iso_country":"CA","country":"Canada","country_arbic":"كندا","iso_region":"CA-NL","municipality":"St. John's","municipality_arbic":"سانت جون","scheduled_service":"yes","icao_code":"CYYT","iata_code":"YYT","gps_code":"CYYT","local_code":"nan"},{"id":"1990","ident":"CYYZ","type":"large_airport","name":"Toronto Lester B. Pearson International Airport","name_arbic":"مطار تورنتو ليستر ب. بيرسون الدولي","latitude_deg":"43.6772","longitude_deg":"-79.6306","elevation_ft":"569","continent":"nan","iso_country":"CA","country":"Canada","country_arbic":"كندا","iso_region":"CA-ON","municipality":"Toronto","municipality_arbic":"تورنتو","scheduled_service":"yes","icao_code":"CYYZ","iata_code":"YYZ","gps_code":"CYYZ","local_code":"YYZ"},{"id":"2050","ident":"DAAG","type":"large_airport","name":"Houari Boumediene Airport","name_arbic":"مطار هواري بومدين","latitude_deg":"36.693886","longitude_deg":"3.214531","elevation_ft":"82","continent":"AF","iso_country":"DZ","country":"Algeria","country_arbic":"الجزائر","iso_region":"DZ-16","municipality":"Algiers","municipality_arbic":"الجزائر","scheduled_service":"yes","icao_code":"DAAG","iata_code":"ALG","gps_code":"DAAG","local_code":"nan"},{"id":"2090","ident":"DGAA","type":"large_airport","name":"Kotoka International Airport","name_arbic":"مطار كوتوكا الدولي","latitude_deg":"5.6051898","longitude_deg":"-0.166786","elevation_ft":"205","continent":"AF","iso_country":"GH","country":"Ghana","country_arbic":"غانا","iso_region":"GH-AA","municipality":"Accra","municipality_arbic":"أكرا","scheduled_service":"yes","icao_code":"DGAA","iata_code":"ACC","gps_code":"DGAA","local_code":"nan"},{"id":"2104","ident":"DNAA","type":"large_airport","name":"Nnamdi Azikiwe International Airport","name_arbic":"مطار نامدي أزيكيوي الدولي","latitude_deg":"9.00679","longitude_deg":"7.26317","elevation_ft":"1123","continent":"AF","iso_country":"NG","country":"Nigeria","country_arbic":"نيجيريا","iso_region":"NG-FC","municipality":"Abuja","municipality_arbic":"أبوجا","scheduled_service":"yes","icao_code":"DNAA","iata_code":"ABV","gps_code":"DNAA","local_code":"nan"},{"id":"2118","ident":"DNMM","type":"large_airport","name":"Murtala Muhammed International Airport","name_arbic":"مطار مورتالا محمد الدولي","latitude_deg":"6.57737","longitude_deg":"3.32116","elevation_ft":"135","continent":"AF","iso_country":"NG","country":"Nigeria","country_arbic":"نيجيريا","iso_region":"NG-LA","municipality":"Lagos","municipality_arbic":"لاغوس","scheduled_service":"yes","icao_code":"DNMM","iata_code":"LOS","gps_code":"DNMM","local_code":"nan"},{"id":"2125","ident":"DRRN","type":"large_airport","name":"Diori Hamani International Airport","name_arbic":"مطار ديوري حماني الدولي","latitude_deg":"13.4815","longitude_deg":"2.18361","elevation_ft":"732","continent":"AF","iso_country":"NE","country":"Niger","country_arbic":"النيجر","iso_region":"NE-8","municipality":"Niamey","municipality_arbic":"نيامي","scheduled_service":"yes","icao_code":"DRRN","iata_code":"NIM","gps_code":"DRRN","local_code":"nan"},{"id":"2133","ident":"DTTA","type":"large_airport","name":"Tunis Carthage International Airport","name_arbic":"مطار تونس قرطاج الدولي","latitude_deg":"36.851002","longitude_deg":"2272-10-01 00:00:00","elevation_ft":"22","continent":"AF","iso_country":"TN","country":"Tunisia","country_arbic":"تونس","iso_region":"TN-11","municipality":"Tunis","municipality_arbic":"تونس","scheduled_service":"yes","icao_code":"DTTA","iata_code":"TUN","gps_code":"DTTA","local_code":"nan"},{"id":"2155","ident":"EBBR","type":"large_airport","name":"Brussels Airport","name_arbic":"مطار بروكسل","latitude_deg":"50.901402","longitude_deg":"4.48444","elevation_ft":"175","continent":"EU","iso_country":"BE","country":"Belgium","country_arbic":"بلجيكا","iso_region":"BE-VBR","municipality":"Zaventem","municipality_arbic":"زافينتيم","scheduled_service":"yes","icao_code":"EBBR","iata_code":"BRU","gps_code":"EBBR","local_code":"nan"},{"id":"301881","ident":"EDDB","type":"large_airport","name":"Berlin Brandenburg Airport","name_arbic":"مطار برلين براندنبورغ","latitude_deg":"52.362247","longitude_deg":"13.500672","elevation_ft":"157","continent":"EU","iso_country":"DE","country":"Germany","country_arbic":"ألمانيا","iso_region":"DE-BR","municipality":"Berlin","municipality_arbic":"برلين","scheduled_service":"yes","icao_code":"EDDB","iata_code":"BER","gps_code":"EDDB","local_code":"nan"},{"id":"2212","ident":"EDDF","type":"large_airport","name":"Frankfurt Airport","name_arbic":"مطار فرانكفورت","latitude_deg":"50.030241","longitude_deg":"8.561096","elevation_ft":"364","continent":"EU","iso_country":"DE","country":"Germany","country_arbic":"ألمانيا","iso_region":"DE-HE","municipality":"Frankfurt am Main","municipality_arbic":"فرانكفورت أم ماين","scheduled_service":"yes","icao_code":"EDDF","iata_code":"FRA","gps_code":"EDDF","local_code":"nan"},{"id":"2214","ident":"EDDH","type":"large_airport","name":"Hamburg Helmut Schmidt Airport","name_arbic":"مطار هامبورغ هيلموت شميدت","latitude_deg":"53.630402","longitude_deg":"9.98823","elevation_ft":"53","continent":"EU","iso_country":"DE","country":"Germany","country_arbic":"ألمانيا","iso_region":"DE-HH","municipality":"Hamburg","municipality_arbic":"هامبورغ","scheduled_service":"yes","icao_code":"EDDH","iata_code":"HAM","gps_code":"EDDH","local_code":"nan"},{"id":"2216","ident":"EDDK","type":"large_airport","name":"Cologne Bonn Airport","name_arbic":"مطار كولونيا بون","latitude_deg":"50.865898","longitude_deg":"7.14274","elevation_ft":"302","continent":"EU","iso_country":"DE","country":"Germany","country_arbic":"ألمانيا","iso_region":"DE-NW","municipality":"Köln (Cologne)","municipality_arbic":"كولونيا (كولونيا)","scheduled_service":"yes","icao_code":"EDDK","iata_code":"CGN","gps_code":"EDDK","local_code":"nan"},{"id":"2217","ident":"EDDL","type":"large_airport","name":"Düsseldorf Airport","name_arbic":"مطار دوسلدورف","latitude_deg":"51.289501","longitude_deg":"6.76678","elevation_ft":"147","continent":"EU","iso_country":"DE","country":"Germany","country_arbic":"ألمانيا","iso_region":"DE-NW","municipality":"Düsseldorf","municipality_arbic":"دوسلدورف","scheduled_service":"yes","icao_code":"EDDL","iata_code":"DUS","gps_code":"EDDL","local_code":"nan"},{"id":"2218","ident":"EDDM","type":"large_airport","name":"Munich Airport","name_arbic":"مطار ميونيخ","latitude_deg":"48.353802","longitude_deg":"7861-11-01 00:00:00","elevation_ft":"1487","continent":"EU","iso_country":"DE","country":"Germany","country_arbic":"ألمانيا","iso_region":"DE-BY","municipality":"Munich","municipality_arbic":"ميونيخ","scheduled_service":"yes","icao_code":"EDDM","iata_code":"MUC","gps_code":"EDDM","local_code":"nan"},{"id":"2219","ident":"EDDN","type":"large_airport","name":"Nuremberg Airport","name_arbic":"مطار نورمبرغ","latitude_deg":"49.498699","longitude_deg":"11.078056","elevation_ft":"1046","continent":"EU","iso_country":"DE","country":"Germany","country_arbic":"ألمانيا","iso_region":"DE-BY","municipality":"Nuremberg","municipality_arbic":"نورمبرغ","scheduled_service":"yes","icao_code":"EDDN","iata_code":"NUE","gps_code":"EDDN","local_code":"nan"},{"id":"2220","ident":"EDDP","type":"large_airport","name":"Leipzig\/Halle Airport","name_arbic":"مطار لايبزيغ\/هاله","latitude_deg":"51.420657","longitude_deg":"12.232705","elevation_ft":"465","continent":"EU","iso_country":"DE","country":"Germany","country_arbic":"ألمانيا","iso_region":"DE-SN","municipality":"Schkeuditz","municipality_arbic":"شكوديتز","scheduled_service":"yes","icao_code":"EDDP","iata_code":"LEJ","gps_code":"EDDP","local_code":"nan"},{"id":"2222","ident":"EDDS","type":"large_airport","name":"Stuttgart Airport","name_arbic":"مطار شتوتغارت","latitude_deg":"48.689899","longitude_deg":"9.22196","elevation_ft":"1276","continent":"EU","iso_country":"DE","country":"Germany","country_arbic":"ألمانيا","iso_region":"DE-BW","municipality":"Stuttgart","municipality_arbic":"شتوتغارت","scheduled_service":"yes","icao_code":"EDDS","iata_code":"STR","gps_code":"EDDS","local_code":"nan"},{"id":"2224","ident":"EDDV","type":"large_airport","name":"Hannover Airport","name_arbic":"مطار هانوفر","latitude_deg":"52.461102","longitude_deg":"9.68508","elevation_ft":"183","continent":"EU","iso_country":"DE","country":"Germany","country_arbic":"ألمانيا","iso_region":"DE-NI","municipality":"Hannover","municipality_arbic":"هانوفر","scheduled_service":"yes","icao_code":"EDDV","iata_code":"HAJ","gps_code":"EDDV","local_code":"nan"},{"id":"2301","ident":"EETN","type":"large_airport","name":"Lennart Meri Tallinn Airport","name_arbic":"مطار لينارت ميري تالين","latitude_deg":"59.413246","longitude_deg":"24.83264","elevation_ft":"131","continent":"EU","iso_country":"EE","country":"Estonia","country_arbic":"إستونيا","iso_region":"EE-37","municipality":"Tallinn","municipality_arbic":"تالين","scheduled_service":"yes","icao_code":"EETN","iata_code":"TLL","gps_code":"EETN","local_code":"nan"},{"id":"2307","ident":"EFHK","type":"large_airport","name":"Helsinki Vantaa Airport","name_arbic":"مطار هلسنكي فانتا","latitude_deg":"60.318363","longitude_deg":"24.963341","elevation_ft":"179","continent":"EU","iso_country":"FI","country":"Finland","country_arbic":"فنلندا","iso_region":"FI-18","municipality":"Helsinki (Vantaa)","municipality_arbic":"هلسنكي (فانتا)","scheduled_service":"yes","icao_code":"EFHK","iata_code":"HEL","gps_code":"EFHK","local_code":"nan"},{"id":"2385","ident":"EGAA","type":"large_airport","name":"Belfast International Airport","name_arbic":"مطار بلفاست الدولي","latitude_deg":"54.65750122","longitude_deg":"-6.215829849","elevation_ft":"268","continent":"EU","iso_country":"GB","country":"United Kingdom","country_arbic":"المملكة المتحدة","iso_region":"GB-NIR","municipality":"Belfast","municipality_arbic":"بلفاست","scheduled_service":"yes","icao_code":"EGAA","iata_code":"BFS","gps_code":"EGAA","local_code":"nan"},{"id":"2389","ident":"EGBB","type":"large_airport","name":"Birmingham Airport","name_arbic":"مطار برمنغهام","latitude_deg":"52.453899","longitude_deg":"-1.74803","elevation_ft":"327","continent":"EU","iso_country":"GB","country":"United Kingdom","country_arbic":"المملكة المتحدة","iso_region":"GB-ENG","municipality":"Birmingham, West Midlands","municipality_arbic":"برمنغهام، ويست ميدلاندز","scheduled_service":"yes","icao_code":"EGBB","iata_code":"BHX","gps_code":"EGBB","local_code":"nan"},{"id":"2398","ident":"EGCC","type":"large_airport","name":"Manchester Airport","name_arbic":"مطار مانشستر","latitude_deg":"53.349375","longitude_deg":"-2.279521","elevation_ft":"257","continent":"EU","iso_country":"GB","country":"United Kingdom","country_arbic":"المملكة المتحدة","iso_region":"GB-ENG","municipality":"Manchester, Greater Manchester","municipality_arbic":"مانشستر، مانشستر الكبرى","scheduled_service":"yes","icao_code":"EGCC","iata_code":"MAN","gps_code":"EGCC","local_code":"nan"},{"id":"2419","ident":"EGGW","type":"large_airport","name":"London Luton Airport","name_arbic":"مطار لندن لوتون","latitude_deg":"51.874699","longitude_deg":"-0.368333","elevation_ft":"526","continent":"EU","iso_country":"GB","country":"United Kingdom","country_arbic":"المملكة المتحدة","iso_region":"GB-ENG","municipality":"Luton, Bedfordshire","municipality_arbic":"لوتون، بيدفوردشير","scheduled_service":"yes","icao_code":"EGGW","iata_code":"LTN","gps_code":"EGGW","local_code":"nan"},{"id":"2429","ident":"EGKK","type":"large_airport","name":"London Gatwick Airport","name_arbic":"مطار لندن جاتويك","latitude_deg":"51.148771","longitude_deg":"-0.192089","elevation_ft":"202","continent":"EU","iso_country":"GB","country":"United Kingdom","country_arbic":"المملكة المتحدة","iso_region":"GB-ENG","municipality":"London","municipality_arbic":"لندن","scheduled_service":"yes","icao_code":"EGKK","iata_code":"LGW","gps_code":"EGKK","local_code":"nan"},{"id":"2434","ident":"EGLL","type":"large_airport","name":"London Heathrow Airport","name_arbic":"مطار لندن هيثرو","latitude_deg":"51.4706","longitude_deg":"-0.461941","elevation_ft":"83","continent":"EU","iso_country":"GB","country":"United Kingdom","country_arbic":"المملكة المتحدة","iso_region":"GB-ENG","municipality":"London","municipality_arbic":"لندن","scheduled_service":"yes","icao_code":"EGLL","iata_code":"LHR","gps_code":"EGLL","local_code":"nan"},{"id":"2461","ident":"EGPF","type":"large_airport","name":"Glasgow Airport","name_arbic":"مطار غلاسكو","latitude_deg":"55.871899","longitude_deg":"-4.43306","elevation_ft":"26","continent":"EU","iso_country":"GB","country":"United Kingdom","country_arbic":"المملكة المتحدة","iso_region":"GB-SCT","municipality":"Glasgow","municipality_arbic":"غلاسكو","scheduled_service":"yes","icao_code":"EGPF","iata_code":"GLA","gps_code":"EGPF","local_code":"nan"},{"id":"2462","ident":"EGPH","type":"large_airport","name":"Edinburgh Airport","name_arbic":"مطار إدنبرة","latitude_deg":"55.950145","longitude_deg":"-3.372288","elevation_ft":"135","continent":"EU","iso_country":"GB","country":"United Kingdom","country_arbic":"المملكة المتحدة","iso_region":"GB-SCT","municipality":"Edinburgh","municipality_arbic":"إدنبرة","scheduled_service":"yes","icao_code":"EGPH","iata_code":"EDI","gps_code":"EGPH","local_code":"nan"},{"id":"2476","ident":"EGSS","type":"large_airport","name":"London Stansted Airport","name_arbic":"مطار لندن ستانستيد","latitude_deg":"51.884998","longitude_deg":"0.235","elevation_ft":"348","continent":"EU","iso_country":"GB","country":"United Kingdom","country_arbic":"المملكة المتحدة","iso_region":"GB-ENG","municipality":"London","municipality_arbic":"لندن","scheduled_service":"yes","icao_code":"EGSS","iata_code":"STN","gps_code":"EGSS","local_code":"nan"},{"id":"2513","ident":"EHAM","type":"large_airport","name":"Amsterdam Airport Schiphol","name_arbic":"مطار سخيبول أمستردام","latitude_deg":"52.308601","longitude_deg":"4.76389","elevation_ft":"-11","continent":"EU","iso_country":"NL","country":"Netherlands","country_arbic":"هولندا","iso_region":"NL-NH","municipality":"Amsterdam","municipality_arbic":"أمستردام","scheduled_service":"yes","icao_code":"EHAM","iata_code":"AMS","gps_code":"EHAM","local_code":"nan"},{"id":"2518","ident":"EHEH","type":"large_airport","name":"Eindhoven Airport","name_arbic":"مطار أيندهوفن","latitude_deg":"51.45009995","longitude_deg":"5.374529839","elevation_ft":"74","continent":"EU","iso_country":"NL","country":"Netherlands","country_arbic":"هولندا","iso_region":"NL-NB","municipality":"Eindhoven","municipality_arbic":"أيندهوفن","scheduled_service":"yes","icao_code":"EHEH","iata_code":"EIN","gps_code":"EHEH","local_code":"nan"},{"id":"2533","ident":"EIDW","type":"large_airport","name":"Dublin Airport","name_arbic":"مطار دبلن","latitude_deg":"53.428713","longitude_deg":"-6.262121","elevation_ft":"242","continent":"EU","iso_country":"IE","country":"Ireland","country_arbic":"أيرلندا","iso_region":"IE-D","municipality":"Dublin","municipality_arbic":"دبلن","scheduled_service":"yes","icao_code":"EIDW","iata_code":"DUB","gps_code":"EIDW","local_code":"nan"},{"id":"2537","ident":"EINN","type":"large_airport","name":"Shannon Airport","name_arbic":"مطار شانون","latitude_deg":"52.702","longitude_deg":"-8.92482","elevation_ft":"46","continent":"EU","iso_country":"IE","country":"Ireland","country_arbic":"أيرلندا","iso_region":"IE-CE","municipality":"Shannon","municipality_arbic":"شانون","scheduled_service":"yes","icao_code":"EINN","iata_code":"SNN","gps_code":"EINN","local_code":"nan"},{"id":"2541","ident":"EKBI","type":"large_airport","name":"Billund Airport","name_arbic":"مطار بيلوند","latitude_deg":"55.740335","longitude_deg":"9.157019","elevation_ft":"247","continent":"EU","iso_country":"DK","country":"Denmark","country_arbic":"الدنمارك","iso_region":"DK-83","municipality":"Billund","municipality_arbic":"بيلوند","scheduled_service":"yes","icao_code":"EKBI","iata_code":"BLL","gps_code":"EKBI","local_code":"nan"},{"id":"2542","ident":"EKCH","type":"large_airport","name":"Copenhagen Kastrup Airport","name_arbic":"مطار كوبنهاغن كاستروب","latitude_deg":"55.61790085","longitude_deg":"12.65600014","elevation_ft":"17","continent":"EU","iso_country":"DK","country":"Denmark","country_arbic":"الدنمارك","iso_region":"DK-84","municipality":"Copenhagen","municipality_arbic":"كوبنهاجن","scheduled_service":"yes","icao_code":"EKCH","iata_code":"CPH","gps_code":"EKCH","local_code":"nan"},{"id":"2563","ident":"ELLX","type":"large_airport","name":"Luxembourg-Findel International Airport","name_arbic":"مطار لوكسمبورغ-فيندل الدولي","latitude_deg":"49.6233333","longitude_deg":"6.2044444","elevation_ft":"1234","continent":"EU","iso_country":"LU","country":"Luxembourg","country_arbic":"لوكسمبورغ","iso_region":"LU-L","municipality":"Luxembourg","municipality_arbic":"لوكسمبورغ","scheduled_service":"yes","icao_code":"ELLX","iata_code":"LUX","gps_code":"ELLX","local_code":"nan"},{"id":"2570","ident":"ENBR","type":"large_airport","name":"Bergen Airport, Flesland","name_arbic":"مطار بيرغن، فليسلاند","latitude_deg":"60.2934","longitude_deg":"5.21814","elevation_ft":"170","continent":"EU","iso_country":"NO","country":"Norway","country_arbic":"النرويج","iso_region":"NO-46","municipality":"Bergen","municipality_arbic":"بيرغن","scheduled_service":"yes","icao_code":"ENBR","iata_code":"BGO","gps_code":"ENBR","local_code":"nan"},{"id":"2578","ident":"ENGM","type":"large_airport","name":"Oslo Airport, Gardermoen","name_arbic":"مطار أوسلو، غاردرموين","latitude_deg":"60.193901","longitude_deg":"11.1004","elevation_ft":"681","continent":"EU","iso_country":"NO","country":"Norway","country_arbic":"النرويج","iso_region":"NO-32","municipality":"Oslo (Gardermoen)","municipality_arbic":"أوسلو (غاردرموين)","scheduled_service":"yes","icao_code":"ENGM","iata_code":"OSL","gps_code":"ENGM","local_code":"nan"},{"id":"2599","ident":"ENTC","type":"large_airport","name":"Tromsø Airport, Langnes","name_arbic":"مطار ترومسو، لانغنيس","latitude_deg":"69.683296","longitude_deg":"18.9189","elevation_ft":"31","continent":"EU","iso_country":"NO","country":"Norway","country_arbic":"النرويج","iso_region":"NO-55","municipality":"Tromsø","municipality_arbic":"ترومسو","scheduled_service":"yes","icao_code":"ENTC","iata_code":"TOS","gps_code":"ENTC","local_code":"nan"},{"id":"2601","ident":"ENVA","type":"large_airport","name":"Trondheim Airport, Værnes","name_arbic":"مطار تروندهايم، فارنيس","latitude_deg":"63.457802","longitude_deg":"10.924","elevation_ft":"56","continent":"EU","iso_country":"NO","country":"Norway","country_arbic":"النرويج","iso_region":"NO-50","municipality":"Trondheim","municipality_arbic":"تروندهايم","scheduled_service":"yes","icao_code":"ENVA","iata_code":"TRD","gps_code":"ENVA","local_code":"nan"},{"id":"2602","ident":"ENZV","type":"large_airport","name":"Stavanger Airport, Sola","name_arbic":"مطار ستافنجر، سولا","latitude_deg":"58.876701","longitude_deg":"5.63778","elevation_ft":"29","continent":"EU","iso_country":"NO","country":"Norway","country_arbic":"النرويج","iso_region":"NO-11","municipality":"Stavanger","municipality_arbic":"ستافنجر","scheduled_service":"yes","icao_code":"ENZV","iata_code":"SVG","gps_code":"ENZV","local_code":"nan"},{"id":"2608","ident":"EPGD","type":"large_airport","name":"Gdańsk Lech Wałęsa Airport","name_arbic":"مطار غدانسك ليخ فاليسا","latitude_deg":"54.377602","longitude_deg":"18.4662","elevation_ft":"489","continent":"EU","iso_country":"PL","country":"Poland","country_arbic":"بولندا","iso_region":"PL-PM","municipality":"Gdańsk","municipality_arbic":"غدانسك","scheduled_service":"yes","icao_code":"EPGD","iata_code":"GDN","gps_code":"EPGD","local_code":"nan"},{"id":"2609","ident":"EPKK","type":"large_airport","name":"Kraków John Paul II International Airport","name_arbic":"مطار كراكوف يوحنا بولس الثاني الدولي","latitude_deg":"50.077702","longitude_deg":"19.7848","elevation_ft":"791","continent":"EU","iso_country":"PL","country":"Poland","country_arbic":"بولندا","iso_region":"PL-MA","municipality":"Balice","municipality_arbic":"باليس","scheduled_service":"yes","icao_code":"EPKK","iata_code":"KRK","gps_code":"EPKK","local_code":"nan"},{"id":"2637","ident":"EPWA","type":"large_airport","name":"Warsaw Chopin Airport","name_arbic":"مطار وارسو شوبان","latitude_deg":"52.165699","longitude_deg":"20.9671","elevation_ft":"362","continent":"EU","iso_country":"PL","country":"Poland","country_arbic":"بولندا","iso_region":"PL-MZ","municipality":"Warsaw","municipality_arbic":"وارسو","scheduled_service":"yes","icao_code":"EPWA","iata_code":"WAW","gps_code":"EPWA","local_code":"nan"},{"id":"2648","ident":"ESGG","type":"large_airport","name":"Göteborg Landvetter Airport","name_arbic":"مطار غوتنبرغ لاندفيتر","latitude_deg":"57.6628","longitude_deg":"2798-12-01 00:00:00","elevation_ft":"506","continent":"EU","iso_country":"SE","country":"Sweden","country_arbic":"السويد","iso_region":"SE-Q","municipality":"Göteborg","municipality_arbic":"غوتنبرغ","scheduled_service":"yes","icao_code":"ESGG","iata_code":"GOT","gps_code":"ESGG","local_code":"nan"},{"id":"2701","ident":"ESSA","type":"large_airport","name":"Stockholm-Arlanda Airport","name_arbic":"مطار ستوكهولم أرلاندا","latitude_deg":"59.64849","longitude_deg":"17.928829","elevation_ft":"137","continent":"EU","iso_country":"SE","country":"Sweden","country_arbic":"السويد","iso_region":"SE-AB","municipality":"Stockholm","municipality_arbic":"ستوكهولم","scheduled_service":"yes","icao_code":"ESSA","iata_code":"ARN","gps_code":"ESSA","local_code":"nan"},{"id":"2758","ident":"EVRA","type":"large_airport","name":"Riga International Airport","name_arbic":"مطار ريغا الدولي","latitude_deg":"56.923599","longitude_deg":"23.9711","elevation_ft":"36","continent":"EU","iso_country":"LV","country":"Latvia","country_arbic":"لاتفيا","iso_region":"LV-062","municipality":"Riga","municipality_arbic":"ريغا","scheduled_service":"yes","icao_code":"EVRA","iata_code":"RIX","gps_code":"EVRA","local_code":"nan"},{"id":"2766","ident":"EYVI","type":"large_airport","name":"Vilnius International Airport","name_arbic":"مطار فيلنيوس الدولي","latitude_deg":"54.634102","longitude_deg":"25.285801","elevation_ft":"648","continent":"EU","iso_country":"LT","country":"Lithuania","country_arbic":"ليتوانيا","iso_region":"LT-VL","municipality":"Vilnius","municipality_arbic":"فيلنيوس","scheduled_service":"yes","icao_code":"EYVI","iata_code":"VNO","gps_code":"EYVI","local_code":"nan"},{"id":"2775","ident":"FACT","type":"large_airport","name":"Cape Town International Airport","name_arbic":"مطار كيب تاون الدولي","latitude_deg":"-33.96480179","longitude_deg":"18.60169983","elevation_ft":"151","continent":"AF","iso_country":"ZA","country":"South Africa","country_arbic":"جنوب أفريقيا","iso_region":"ZA-WC","municipality":"Cape Town","municipality_arbic":"كيب تاون","scheduled_service":"yes","icao_code":"FACT","iata_code":"CPT","gps_code":"FACT","local_code":"nan"},{"id":"300795","ident":"FALE","type":"large_airport","name":"King Shaka International Airport","name_arbic":"مطار الملك شاكا الدولي","latitude_deg":"-29.61444444","longitude_deg":"31.11972222","elevation_ft":"295","continent":"AF","iso_country":"ZA","country":"South Africa","country_arbic":"جنوب أفريقيا","iso_region":"ZA-NL","municipality":"Durban","municipality_arbic":"ديربان","scheduled_service":"yes","icao_code":"FALE","iata_code":"DUR","gps_code":"FALE","local_code":"nan"},{"id":"31055","ident":"FAOR","type":"large_airport","name":"O.R. Tambo International Airport","name_arbic":"مطار أو آر تامبو الدولي","latitude_deg":"-26.1392","longitude_deg":"28.246","elevation_ft":"5558","continent":"AF","iso_country":"ZA","country":"South Africa","country_arbic":"جنوب أفريقيا","iso_region":"ZA-GT","municipality":"Johannesburg","municipality_arbic":"جوهانسبرغ","scheduled_service":"yes","icao_code":"FAOR","iata_code":"JNB","gps_code":"FAOR","local_code":"nan"},{"id":"2864","ident":"FBSK","type":"large_airport","name":"Sir Seretse Khama International Airport","name_arbic":"مطار سير سيريتسي خاما الدولي","latitude_deg":"-24.555201","longitude_deg":"25.9182","elevation_ft":"3299","continent":"AF","iso_country":"BW","country":"Botswana","country_arbic":"بوتسوانا","iso_region":"BW-GA","municipality":"Gaborone","municipality_arbic":"غابورون","scheduled_service":"yes","icao_code":"FBSK","iata_code":"GBE","gps_code":"FBSK","local_code":"nan"},{"id":"308033","ident":"FDSK","type":"large_airport","name":"King Mswati III International Airport","name_arbic":"مطار الملك مسواتي الثالث الدولي","latitude_deg":"-26.358611","longitude_deg":"31.716944","elevation_ft":"1092","continent":"AF","iso_country":"SZ","country":"Eswatini","country_arbic":"إيسواتيني","iso_region":"SZ-LU","municipality":"Mpaka","municipality_arbic":"مباكا","scheduled_service":"yes","icao_code":"FDSK","iata_code":"SHO","gps_code":"FDSK","local_code":"nan"},{"id":"2878","ident":"FIMP","type":"large_airport","name":"Sir Seewoosagur Ramgoolam International Airport","name_arbic":"مطار السير سيووساغور رامغولام الدولي","latitude_deg":"-20.430201","longitude_deg":"57.683601","elevation_ft":"186","continent":"AF","iso_country":"MU","country":"Mauritius","country_arbic":"موريشيوس","iso_region":"MU-GP","municipality":"Plaine Magnien","municipality_arbic":"بلين ماجنيان","scheduled_service":"yes","icao_code":"FIMP","iata_code":"MRU","gps_code":"FIMP","local_code":"nan"},{"id":"2894","ident":"FLLS","type":"large_airport","name":"Kenneth Kaunda International Airport","name_arbic":"مطار كينيث كاوندا الدولي","latitude_deg":"-15.330833","longitude_deg":"28.452722","elevation_ft":"3779","continent":"AF","iso_country":"ZM","country":"Zambia","country_arbic":"زامبيا","iso_region":"ZM-09","municipality":"Lusaka","municipality_arbic":"لوساكا","scheduled_service":"yes","icao_code":"FLKK","iata_code":"LUN","gps_code":"FLKK","local_code":"nan"},{"id":"2905","ident":"FMEE","type":"large_airport","name":"Roland Garros Airport","name_arbic":"مطار رولان جاروس","latitude_deg":"-20.890087","longitude_deg":"55.518894","elevation_ft":"66","continent":"AF","iso_country":"RE","country":"Réunion","country_arbic":"جمع شمل","iso_region":"RE-SD","municipality":"Sainte-Marie","municipality_arbic":"سانت ماري","scheduled_service":"yes","icao_code":"FMEE","iata_code":"RUN","gps_code":"FMEE","local_code":"nan"},{"id":"2908","ident":"FMMI","type":"large_airport","name":"Ivato Airport","name_arbic":"مطار إيفاتو","latitude_deg":"-18.7969","longitude_deg":"47.478802","elevation_ft":"4198","continent":"AF","iso_country":"MG","country":"Madagascar","country_arbic":"مدغشقر","iso_region":"MG-T","municipality":"Antananarivo","municipality_arbic":"أنتاناناريفو","scheduled_service":"yes","icao_code":"FMMI","iata_code":"TNR","gps_code":"FMMI","local_code":"nan"},{"id":"2942","ident":"FNLU","type":"large_airport","name":"Quatro de Fevereiro International Airport","name_arbic":"مطار كواترو دي فيفيريرو الدولي","latitude_deg":"-8.85837","longitude_deg":"13.2312","elevation_ft":"243","continent":"AF","iso_country":"AO","country":"Angola","country_arbic":"أنغولا","iso_region":"AO-LUA","municipality":"Luanda","municipality_arbic":"لواندا","scheduled_service":"yes","icao_code":"FNLU","iata_code":"LAD","gps_code":"FNLU","local_code":"nan"},{"id":"2969","ident":"FPST","type":"large_airport","name":"São Tomé International Airport","name_arbic":"مطار ساو تومي الدولي","latitude_deg":"0.378175","longitude_deg":"6.71215","elevation_ft":"33","continent":"AF","iso_country":"ST","country":"Sao Tome and Principe","country_arbic":"ساو تومي وبرينسيبي","iso_region":"ST-01","municipality":"São Tomé","municipality_arbic":"ساو تومي","scheduled_service":"yes","icao_code":"FPST","iata_code":"TMS","gps_code":"FPST","local_code":"nan"},{"id":"2975","ident":"FQMA","type":"large_airport","name":"Maputo Airport","name_arbic":"مطار مابوتو","latitude_deg":"-25.920799","longitude_deg":"32.572601","elevation_ft":"145","continent":"AF","iso_country":"MZ","country":"Mozambique","country_arbic":"موزمبيق","iso_region":"MZ-MPM","municipality":"Maputo","municipality_arbic":"مابوتو","scheduled_service":"yes","icao_code":"FQMA","iata_code":"MPM","gps_code":"FQMA","local_code":"nan"},{"id":"2993","ident":"FSIA","type":"large_airport","name":"Seychelles International Airport","name_arbic":"مطار سيشل الدولي","latitude_deg":"-4.67434","longitude_deg":"55.521801","elevation_ft":"10","continent":"AF","iso_country":"SC","country":"Seychelles","country_arbic":"سيشل","iso_region":"SC-20","municipality":"Mahe Island","municipality_arbic":"جزيرة ماهي","scheduled_service":"yes","icao_code":"FSIA","iata_code":"SEZ","gps_code":"FSIA","local_code":"nan"},{"id":"2998","ident":"FTTJ","type":"large_airport","name":"N'Djamena International Airport","name_arbic":"مطار نجامينا الدولي","latitude_deg":"12.1337","longitude_deg":"15.034","elevation_ft":"968","continent":"AF","iso_country":"TD","country":"Chad","country_arbic":"تشاد","iso_region":"TD-ND","municipality":"N'Djamena","municipality_arbic":"نجامينا","scheduled_service":"yes","icao_code":"FTTJ","iata_code":"NDJ","gps_code":"FTTJ","local_code":"nan"},{"id":"3005","ident":"FVHA","type":"large_airport","name":"Robert Gabriel Mugabe International Airport","name_arbic":"مطار روبرت غابرييل موغابي الدولي","latitude_deg":"-17.931801","longitude_deg":"31.0928","elevation_ft":"4887","continent":"AF","iso_country":"ZW","country":"Zimbabwe","country_arbic":"زيمبابوي","iso_region":"ZW-HA","municipality":"Harare","municipality_arbic":"هراري","scheduled_service":"yes","icao_code":"nan","iata_code":"HRE","gps_code":"FVRG","local_code":"nan"},{"id":"3039","ident":"FYWH","type":"large_airport","name":"Hosea Kutako International Airport","name_arbic":"مطار هوشع كوتاكو الدولي","latitude_deg":"-22.4799","longitude_deg":"17.4709","elevation_ft":"5640","continent":"AF","iso_country":"nan","country":"Namibia","country_arbic":"ناميبيا","iso_region":"NA-KH","municipality":"Windhoek","municipality_arbic":"ويندهوك","scheduled_service":"yes","icao_code":"FYWH","iata_code":"WDH","gps_code":"FYWH","local_code":"nan"},{"id":"3040","ident":"FZAA","type":"large_airport","name":"Ndjili International Airport","name_arbic":"مطار ندجيلي الدولي","latitude_deg":"-4.38575","longitude_deg":"15.4446","elevation_ft":"1027","continent":"AF","iso_country":"CD","country":"Congo, the Democratic Republic of the","country_arbic":"الكونغو، جمهورية الكونغو الديمقراطية","iso_region":"CD-KN","municipality":"Kinshasa","municipality_arbic":"كينشاسا","scheduled_service":"yes","icao_code":"FZAA","iata_code":"FIH","gps_code":"FZAA","local_code":"nan"},{"id":"3066","ident":"GABS","type":"large_airport","name":"Modibo Keita International Airport","name_arbic":"مطار موديبو كيتا الدولي","latitude_deg":"5335-12-01 00:00:00","longitude_deg":"-7.94994","elevation_ft":"1247","continent":"AF","iso_country":"ML","country":"Mali","country_arbic":"مالي","iso_region":"ML-2","municipality":"Bamako","municipality_arbic":"باماكو","scheduled_service":"yes","icao_code":"GABS","iata_code":"BKO","gps_code":"GABS","local_code":"nan"},{"id":"3076","ident":"GBYD","type":"large_airport","name":"Banjul International Airport","name_arbic":"مطار بانجول الدولي","latitude_deg":"13.338","longitude_deg":"-16.652201","elevation_ft":"95","continent":"AF","iso_country":"GM","country":"Gambia","country_arbic":"غامبيا","iso_region":"GM-W","municipality":"Yundum","municipality_arbic":"يوندوم","scheduled_service":"yes","icao_code":"GBYD","iata_code":"BJL","gps_code":"GBYD","local_code":"nan"},{"id":"3077","ident":"GCFV","type":"large_airport","name":"Fuerteventura Airport","name_arbic":"مطار فويرتيفنتورا","latitude_deg":"28.4527","longitude_deg":"-13.8638","elevation_ft":"85","continent":"AF","iso_country":"ES","country":"Spain","country_arbic":"إسبانيا","iso_region":"ES-CN","municipality":"El Matorral","municipality_arbic":"إل ماتورال","scheduled_service":"yes","icao_code":"GCFV","iata_code":"FUE","gps_code":"GCFV","local_code":"nan"},{"id":"3081","ident":"GCLP","type":"large_airport","name":"Gran Canaria Airport","name_arbic":"مطار جران كناريا","latitude_deg":"27.9319","longitude_deg":"-15.3866","elevation_ft":"78","continent":"AF","iso_country":"ES","country":"Spain","country_arbic":"إسبانيا","iso_region":"ES-CN","municipality":"Gran Canaria Island","municipality_arbic":"جزيرة جران كناريا","scheduled_service":"yes","icao_code":"GCLP","iata_code":"LPA","gps_code":"GCLP","local_code":"nan"},{"id":"3082","ident":"GCRR","type":"large_airport","name":"César Manrique-Lanzarote Airport","name_arbic":"مطار سيزار مانريكي لانزاروت","latitude_deg":"28.945499","longitude_deg":"-13.6052","elevation_ft":"46","continent":"AF","iso_country":"ES","country":"Spain","country_arbic":"إسبانيا","iso_region":"ES-CN","municipality":"San Bartolomé","municipality_arbic":"سان بارتولومي","scheduled_service":"yes","icao_code":"GCRR","iata_code":"ACE","gps_code":"GCRR","local_code":"nan"},{"id":"3083","ident":"GCTS","type":"large_airport","name":"Tenerife Sur Airport","name_arbic":"مطار تينيريفي سور","latitude_deg":"28.0445","longitude_deg":"-16.5725","elevation_ft":"209","continent":"AF","iso_country":"ES","country":"Spain","country_arbic":"إسبانيا","iso_region":"ES-CN","municipality":"Tenerife","municipality_arbic":"تينيريفي","scheduled_service":"yes","icao_code":"GCTS","iata_code":"TFS","gps_code":"GCTS","local_code":"nan"},{"id":"3095","ident":"GFLL","type":"large_airport","name":"Lungi International Airport","name_arbic":"مطار لونجي الدولي","latitude_deg":"8.61644","longitude_deg":"-13.1955","elevation_ft":"84","continent":"AF","iso_country":"SL","country":"Sierra Leone","country_arbic":"سيراليون","iso_region":"SL-N","municipality":"Freetown (Lungi-Town)","municipality_arbic":"فريتاون (لونجي تاون)","scheduled_service":"yes","icao_code":"GFLL","iata_code":"FNA","gps_code":"GFLL","local_code":"nan"},{"id":"3099","ident":"GLRB","type":"large_airport","name":"Roberts International Airport","name_arbic":"مطار روبرتس الدولي","latitude_deg":"6.23379","longitude_deg":"-10.3623","elevation_ft":"31","continent":"AF","iso_country":"LR","country":"Liberia","country_arbic":"ليبيريا","iso_region":"LR-MG","municipality":"Monrovia","municipality_arbic":"مونروفيا","scheduled_service":"yes","icao_code":"GLRB","iata_code":"ROB","gps_code":"GLRB","local_code":"nan"},{"id":"3101","ident":"GMAD","type":"large_airport","name":"Al Massira Airport","name_arbic":"مطار المسيرة","latitude_deg":"30.322478","longitude_deg":"-9.412003","elevation_ft":"250","continent":"AF","iso_country":"MA","country":"Morocco","country_arbic":"المغرب","iso_region":"MA-09","municipality":"Agadir (Temsia)","municipality_arbic":"أكادير (تمسيا)","scheduled_service":"yes","icao_code":"GMAD","iata_code":"AGA","gps_code":"GMAD","local_code":"nan"},{"id":"3103","ident":"GMFF","type":"large_airport","name":"Fes Saïss International Airport","name_arbic":"مطار فاس سايس الدولي","latitude_deg":"33.927299","longitude_deg":"-4.97796","elevation_ft":"1900","continent":"AF","iso_country":"MA","country":"Morocco","country_arbic":"المغرب","iso_region":"MA-03","municipality":"Saïss","municipality_arbic":"سايس","scheduled_service":"yes","icao_code":"GMFF","iata_code":"FEZ","gps_code":"GMFF","local_code":"nan"},{"id":"3109","ident":"GMME","type":"large_airport","name":"Rabat-Salé Airport","name_arbic":"مطار الرباط سلا","latitude_deg":"34.051498","longitude_deg":"-6.75152","elevation_ft":"276","continent":"AF","iso_country":"MA","country":"Morocco","country_arbic":"المغرب","iso_region":"MA-04","municipality":"Rabat","municipality_arbic":"الرباط","scheduled_service":"yes","icao_code":"GMME","iata_code":"RBA","gps_code":"GMME","local_code":"nan"},{"id":"3113","ident":"GMMN","type":"large_airport","name":"Mohammed V International Airport","name_arbic":"مطار محمد الخامس الدولي","latitude_deg":"33.3675","longitude_deg":"-7.58997","elevation_ft":"656","continent":"AF","iso_country":"MA","country":"Morocco","country_arbic":"المغرب","iso_region":"MA-06","municipality":"Casablanca","municipality_arbic":"الدار البيضاء","scheduled_service":"yes","icao_code":"GMMN","iata_code":"CMN","gps_code":"GMMN","local_code":"nan"},{"id":"3115","ident":"GMMX","type":"large_airport","name":"Menara Airport","name_arbic":"مطار المنارة","latitude_deg":"31.606899","longitude_deg":"-8.0363","elevation_ft":"1545","continent":"AF","iso_country":"MA","country":"Morocco","country_arbic":"المغرب","iso_region":"MA-07","municipality":"Marrakech","municipality_arbic":"مراكش","scheduled_service":"yes","icao_code":"GMMX","iata_code":"RAK","gps_code":"GMMX","local_code":"nan"},{"id":"3121","ident":"GMTT","type":"large_airport","name":"Tangier Ibn Battuta Airport","name_arbic":"مطار طنجة ابن بطوطة","latitude_deg":"35.731741","longitude_deg":"-5.921459","elevation_ft":"62","continent":"AF","iso_country":"MA","country":"Morocco","country_arbic":"المغرب","iso_region":"MA-01","municipality":"Tangier","municipality_arbic":"طنجة","scheduled_service":"yes","icao_code":"GMTT","iata_code":"TNG","gps_code":"GMTT","local_code":"nan"},{"id":"325736","ident":"GOBD","type":"large_airport","name":"Blaise Diagne International Airport","name_arbic":"مطار بليز دياغني الدولي","latitude_deg":"14.670878","longitude_deg":"-17.072829","elevation_ft":"290","continent":"AF","iso_country":"SN","country":"Senegal","country_arbic":"السنغال","iso_region":"SN-DK","municipality":"Dakar","municipality_arbic":"داكار","scheduled_service":"yes","icao_code":"GOBD","iata_code":"DSS","gps_code":"GOBD","local_code":"nan"},{"id":"323315","ident":"GQNO","type":"large_airport","name":"Nouakchott–Oumtounsy International Airport","name_arbic":"مطار نواكشوط-أمتونسي الدولي","latitude_deg":"18.31","longitude_deg":"-15.969722","elevation_ft":"9","continent":"AF","iso_country":"MR","country":"Mauritania","country_arbic":"موريتانيا","iso_region":"MR-NKC","municipality":"Nouakchott","municipality_arbic":"نواكشوط","scheduled_service":"yes","icao_code":"GQNO","iata_code":"NKC","gps_code":"GQNO","local_code":"nan"},{"id":"3150","ident":"GVAC","type":"large_airport","name":"Amílcar Cabral International Airport","name_arbic":"مطار أميلكار كابرال الدولي","latitude_deg":"16.7414","longitude_deg":"-22.9494","elevation_ft":"177","continent":"AF","iso_country":"CV","country":"Cape Verde","country_arbic":"الرأس الأخضر","iso_region":"CV-B","municipality":"Espargos","municipality_arbic":"إسبارجوس","scheduled_service":"yes","icao_code":"GVAC","iata_code":"SID","gps_code":"GVAC","local_code":"nan"},{"id":"3153","ident":"GVNP","type":"large_airport","name":"Nelson Mandela International Airport","name_arbic":"مطار نيلسون مانديلا الدولي","latitude_deg":"14.941126","longitude_deg":"-23.484728","elevation_ft":"230","continent":"AF","iso_country":"CV","country":"Cape Verde","country_arbic":"الرأس الأخضر","iso_region":"CV-S","municipality":"Praia","municipality_arbic":"برايا","scheduled_service":"yes","icao_code":"GVNP","iata_code":"RAI","gps_code":"GVNP","local_code":"nan"},{"id":"3157","ident":"HAAB","type":"large_airport","name":"Addis Ababa Bole International Airport","name_arbic":"مطار أديس أبابا بولي الدولي","latitude_deg":"8.97789","longitude_deg":"38.799301","elevation_ft":"7630","continent":"AF","iso_country":"ET","country":"Ethiopia","country_arbic":"أثيوبيا","iso_region":"ET-AA","municipality":"Addis Ababa","municipality_arbic":"أديس أبابا","scheduled_service":"yes","icao_code":"HAAB","iata_code":"ADD","gps_code":"HAAB","local_code":"nan"},{"id":"3174","ident":"HDAM","type":"large_airport","name":"Djibouti-Ambouli Airport","name_arbic":"مطار جيبوتي أمبولي","latitude_deg":"5473-11-01 00:00:00","longitude_deg":"43.1595","elevation_ft":"49","continent":"AF","iso_country":"DJ","country":"Djibouti","country_arbic":"جيبوتي","iso_region":"DJ-DJ","municipality":"Djibouti City","municipality_arbic":"مدينة جيبوتي","scheduled_service":"yes","icao_code":"HDAM","iata_code":"JIB","gps_code":"HDAM","local_code":"nan"},{"id":"3183","ident":"HECA","type":"large_airport","name":"Cairo International Airport","name_arbic":"مطار القاهرة الدولي","latitude_deg":"30.111534","longitude_deg":"31.396694","elevation_ft":"322","continent":"AF","iso_country":"EG","country":"Egypt","country_arbic":"مصر","iso_region":"EG-C","municipality":"Cairo","municipality_arbic":"القاهرة","scheduled_service":"yes","icao_code":"HECA","iata_code":"CAI","gps_code":"HECA","local_code":"nan"},{"id":"3186","ident":"HEGN","type":"large_airport","name":"Hurghada International Airport","name_arbic":"مطار الغردقة الدولي","latitude_deg":"27.176776","longitude_deg":"33.796692","elevation_ft":"32","continent":"AF","iso_country":"EG","country":"Egypt","country_arbic":"مصر","iso_region":"EG-BA","municipality":"Hurghada","municipality_arbic":"الغردقة","scheduled_service":"yes","icao_code":"HEGN","iata_code":"HRG","gps_code":"HEGN","local_code":"nan"},{"id":"300893","ident":"HESG","type":"large_airport","name":"Suhaj Mubarak International Airport","name_arbic":"مطار سوهاج مبارك الدولي","latitude_deg":"26.342515","longitude_deg":"31.743017","elevation_ft":"322","continent":"AF","iso_country":"EG","country":"Egypt","country_arbic":"مصر","iso_region":"EG-SHG","municipality":"Suhaj","municipality_arbic":"سوهاج","scheduled_service":"yes","icao_code":"HESG","iata_code":"HMB","gps_code":"HESG","local_code":"nan"},{"id":"3198","ident":"HESH","type":"large_airport","name":"Sharm El Sheikh International Airport","name_arbic":"مطار شرم الشيخ الدولي","latitude_deg":"27.977272","longitude_deg":"34.394717","elevation_ft":"191","continent":"AS","iso_country":"EG","country":"Egypt","country_arbic":"مصر","iso_region":"EG-JS","municipality":"Sharm El Sheikh","municipality_arbic":"شرم الشيخ","scheduled_service":"yes","icao_code":"HESH","iata_code":"SSH","gps_code":"HESH","local_code":"nan"},{"id":"3247","ident":"HJJJ","type":"large_airport","name":"Juba International Airport","name_arbic":"مطار جوبا الدولي","latitude_deg":"4.87201","longitude_deg":"31.601101","elevation_ft":"1513","continent":"AF","iso_country":"SS","country":"South Sudan","country_arbic":"جنوب السودان","iso_region":"SS-EC","municipality":"Juba","municipality_arbic":"جوبا","scheduled_service":"yes","icao_code":"HJJJ","iata_code":"JUB","gps_code":"HJJJ","local_code":"nan"},{"id":"3206","ident":"HKJK","type":"large_airport","name":"Jomo Kenyatta International Airport","name_arbic":"مطار جومو كينياتا الدولي","latitude_deg":"-1.319239974","longitude_deg":"36.92779922","elevation_ft":"5330","continent":"AF","iso_country":"KE","country":"Kenya","country_arbic":"كينيا","iso_region":"KE-110","municipality":"Nairobi","municipality_arbic":"نيروبي","scheduled_service":"yes","icao_code":"HKJK","iata_code":"NBO","gps_code":"HKJK","local_code":"nan"},{"id":"3213","ident":"HKMO","type":"large_airport","name":"Moi International Airport","name_arbic":"مطار موي الدولي","latitude_deg":"-4.03483","longitude_deg":"39.5942","elevation_ft":"200","continent":"AF","iso_country":"KE","country":"Kenya","country_arbic":"كينيا","iso_region":"KE-300","municipality":"Mombasa","municipality_arbic":"مومباسا","scheduled_service":"yes","icao_code":"HKMO","iata_code":"MBA","gps_code":"HKMO","local_code":"nan"},{"id":"3224","ident":"HLLM","type":"large_airport","name":"Mitiga International Airport","name_arbic":"مطار معيتيقة الدولي","latitude_deg":"32.89177","longitude_deg":"13.287878","elevation_ft":"36","continent":"AF","iso_country":"LY","country":"Libya","country_arbic":"ليبيا","iso_region":"LY-TB","municipality":"Tripoli","municipality_arbic":"طرابلس","scheduled_service":"yes","icao_code":"HLLM","iata_code":"MJI","gps_code":"HLLM","local_code":"nan"},{"id":"3237","ident":"HRYR","type":"large_airport","name":"Kigali International Airport","name_arbic":"مطار كيغالي الدولي","latitude_deg":"-1.96863","longitude_deg":"30.1395","elevation_ft":"4859","continent":"AF","iso_country":"RW","country":"Rwanda","country_arbic":"رواندا","iso_region":"RW-01","municipality":"Kigali","municipality_arbic":"كيغالي","scheduled_service":"yes","icao_code":"HRYR","iata_code":"KGL","gps_code":"HRYR","local_code":"nan"},{"id":"3249","ident":"HSSK","type":"large_airport","name":"Khartoum International Airport","name_arbic":"مطار الخرطوم الدولي","latitude_deg":"15.5895","longitude_deg":"32.5532","elevation_ft":"1265","continent":"AF","iso_country":"SD","country":"Sudan","country_arbic":"السودان","iso_region":"SD-03","municipality":"Khartoum","municipality_arbic":"الخرطوم","scheduled_service":"yes","icao_code":"HSSK","iata_code":"KRT","gps_code":"HSSK","local_code":"nan"},{"id":"3251","ident":"HTDA","type":"large_airport","name":"Julius Nyerere International Airport","name_arbic":"مطار جوليوس نيريري الدولي","latitude_deg":"-6.87811","longitude_deg":"39.202599","elevation_ft":"182","continent":"AF","iso_country":"TZ","country":"Tanzania, United Republic of","country_arbic":"تنزانيا، جمهورية الاتحاد","iso_region":"TZ-02","municipality":"Dar es Salaam","municipality_arbic":"دار السلام","scheduled_service":"yes","icao_code":"HTDA","iata_code":"DAR","gps_code":"HTDA","local_code":"nan"},{"id":"3260","ident":"HTZA","type":"large_airport","name":"Abeid Amani Karume International Airport","name_arbic":"مطار عبيد أماني كرومي الدولي","latitude_deg":"-6.22202","longitude_deg":"39.224899","elevation_ft":"54","continent":"AF","iso_country":"TZ","country":"Tanzania, United Republic of","country_arbic":"تنزانيا، جمهورية الاتحاد","iso_region":"TZ-07","municipality":"Zanzibar","municipality_arbic":"زنجبار","scheduled_service":"yes","icao_code":"HTZA","iata_code":"ZNZ","gps_code":"HTZA","local_code":"nan"},{"id":"3263","ident":"HUEN","type":"large_airport","name":"Entebbe International Airport","name_arbic":"مطار عنتيبي الدولي","latitude_deg":"0.042386","longitude_deg":"32.443501","elevation_ft":"3782","continent":"AF","iso_country":"UG","country":"Uganda","country_arbic":"أوغندا","iso_region":"UG-C","municipality":"Kampala","municipality_arbic":"كمبالا","scheduled_service":"yes","icao_code":"HUEN","iata_code":"EBB","gps_code":"HUEN","local_code":"nan"},{"id":"507227","ident":"ID-0277","type":"large_airport","name":"Dhoho International Airport","name_arbic":"مطار دهوهو الدولي","latitude_deg":"-7.750278","longitude_deg":"111.947222","elevation_ft":"380","continent":"AS","iso_country":"ID","country":"Indonesia","country_arbic":"أندونيسيا","iso_region":"ID-JI","municipality":"Kediri","municipality_arbic":"كيديري","scheduled_service":"no","icao_code":"WARD","iata_code":"DHX","gps_code":"WARD","local_code":"nan"},{"id":"16091","ident":"KABQ","type":"large_airport","name":"Albuquerque International Sunport","name_arbic":"مطار ألباكركي الدولي","latitude_deg":"35.039976","longitude_deg":"-106.608925","elevation_ft":"5355","continent":"nan","iso_country":"US","country":"United States","country_arbic":"الولايات المتحدة","iso_region":"US-NM","municipality":"Albuquerque","municipality_arbic":"ألباكركي","scheduled_service":"yes","icao_code":"KABQ","iata_code":"ABQ","gps_code":"KABQ","local_code":"ABQ"},{"id":"3364","ident":"KADW","type":"large_airport","name":"Joint Base Andrews","name_arbic":"قاعدة أندروز المشتركة","latitude_deg":"38.810799","longitude_deg":"-76.866997","elevation_ft":"280","continent":"nan","iso_country":"US","country":"United States","country_arbic":"الولايات المتحدة","iso_region":"US-MD","municipality":"Camp Springs","municipality_arbic":"كامب سبرينغز","scheduled_service":"no","icao_code":"KADW","iata_code":"ADW","gps_code":"KADW","local_code":"ADW"},{"id":"3384","ident":"KATL","type":"large_airport","name":"Hartsfield Jackson Atlanta International Airport","name_arbic":"مطار هارتسفيلد جاكسون أتلانتا الدولي","latitude_deg":"33.6367","longitude_deg":"-84.428101","elevation_ft":"1026","continent":"nan","iso_country":"US","country":"United States","country_arbic":"الولايات المتحدة","iso_region":"US-GA","municipality":"Atlanta","municipality_arbic":"أتلانتا","scheduled_service":"yes","icao_code":"KATL","iata_code":"ATL","gps_code":"KATL","local_code":"ATL"},{"id":"3386","ident":"KAUS","type":"large_airport","name":"Austin Bergstrom International Airport","name_arbic":"مطار أوستن بيرجستروم الدولي","latitude_deg":"30.197535","longitude_deg":"-97.662015","elevation_ft":"542","continent":"nan","iso_country":"US","country":"United States","country_arbic":"الولايات المتحدة","iso_region":"US-TX","municipality":"Austin","municipality_arbic":"أوستن","scheduled_service":"yes","icao_code":"KAUS","iata_code":"AUS","gps_code":"KAUS","local_code":"AUS"},{"id":"3396","ident":"KBDL","type":"large_airport","name":"Bradley International Airport","name_arbic":"مطار برادلي الدولي","latitude_deg":"41.93851","longitude_deg":"-72.688066","elevation_ft":"173","continent":"nan","iso_country":"US","country":"United States","country_arbic":"الولايات المتحدة","iso_region":"US-CT","municipality":"Hartford","municipality_arbic":"هارتفورد","scheduled_service":"yes","icao_code":"KBDL","iata_code":"BDL","gps_code":"KBDL","local_code":"BDL"},{"id":"3420","ident":"KBNA","type":"large_airport","name":"Nashville International Airport","name_arbic":"مطار ناشفيل الدولي","latitude_deg":"36.1245","longitude_deg":"-86.6782","elevation_ft":"599","continent":"nan","iso_country":"US","country":"United States","country_arbic":"الولايات المتحدة","iso_region":"US-TN","municipality":"Nashville","municipality_arbic":"ناشفيل","scheduled_service":"yes","icao_code":"KBNA","iata_code":"BNA","gps_code":"KBNA","local_code":"BNA"},{"id":"3422","ident":"KBOS","type":"large_airport","name":"Logan International Airport","name_arbic":"مطار لوغان الدولي","latitude_deg":"42.36197","longitude_deg":"-71.0079","elevation_ft":"20","continent":"nan","iso_country":"US","country":"United States","country_arbic":"الولايات المتحدة","iso_region":"US-MA","municipality":"Boston","municipality_arbic":"بوسطن","scheduled_service":"yes","icao_code":"KBOS","iata_code":"BOS","gps_code":"KBOS","local_code":"BOS"},{"id":"3431","ident":"KBUF","type":"large_airport","name":"Buffalo Niagara International Airport","name_arbic":"مطار بافالو نياجرا الدولي","latitude_deg":"42.940498","longitude_deg":"-78.732201","elevation_ft":"728","continent":"nan","iso_country":"US","country":"United States","country_arbic":"الولايات المتحدة","iso_region":"US-NY","municipality":"Buffalo","municipality_arbic":"بوفالو","scheduled_service":"yes","icao_code":"KBUF","iata_code":"BUF","gps_code":"KBUF","local_code":"BUF"},{"id":"3435","ident":"KBWI","type":"large_airport","name":"Baltimore\/Washington International Thurgood Marshall Airport","name_arbic":"مطار بالتيمور\/واشنطن الدولي ثورغود مارشال","latitude_deg":"39.1754","longitude_deg":"-76.668297","elevation_ft":"146","continent":"nan","iso_country":"US","country":"United States","country_arbic":"الولايات المتحدة","iso_region":"US-MD","municipality":"Baltimore","municipality_arbic":"بالتيمور","scheduled_service":"yes","icao_code":"KBWI","iata_code":"BWI","gps_code":"KBWI","local_code":"BWI"},{"id":"3454","ident":"KCLE","type":"large_airport","name":"Cleveland Hopkins International Airport","name_arbic":"مطار كليفلاند هوبكنز الدولي","latitude_deg":"41.411701","longitude_deg":"-81.8498","elevation_ft":"791","continent":"nan","iso_country":"US","country":"United States","country_arbic":"الولايات المتحدة","iso_region":"US-OH","municipality":"Cleveland","municipality_arbic":"كليفلاند","scheduled_service":"yes","icao_code":"KCLE","iata_code":"CLE","gps_code":"KCLE","local_code":"CLE"},{"id":"3457","ident":"KCLT","type":"large_airport","name":"Charlotte Douglas International Airport","name_arbic":"مطار شارلوت دوغلاس الدولي","latitude_deg":"35.2140007","longitude_deg":"-80.94309998","elevation_ft":"748","continent":"nan","iso_country":"US","country":"United States","country_arbic":"الولايات المتحدة","iso_region":"US-NC","municipality":"Charlotte","municipality_arbic":"شارلوت","scheduled_service":"yes","icao_code":"KCLT","iata_code":"CLT","gps_code":"KCLT","local_code":"CLT"},{"id":"3458","ident":"KCMH","type":"large_airport","name":"John Glenn Columbus International Airport","name_arbic":"مطار جون جلين كولومبوس الدولي","latitude_deg":"39.998001","longitude_deg":"-82.891899","elevation_ft":"815","continent":"nan","iso_country":"US","country":"United States","country_arbic":"الولايات المتحدة","iso_region":"US-OH","municipality":"Columbus","municipality_arbic":"كولومبوس","scheduled_service":"yes","icao_code":"KCMH","iata_code":"CMH","gps_code":"KCMH","local_code":"CMH"},{"id":"3471","ident":"KCVG","type":"large_airport","name":"Cincinnati Northern Kentucky International Airport","name_arbic":"مطار سينسيناتي شمال كنتاكي الدولي","latitude_deg":"39.048801","longitude_deg":"-84.667801","elevation_ft":"896","continent":"nan","iso_country":"US","country":"United States","country_arbic":"الولايات المتحدة","iso_region":"US-KY","municipality":"Cincinnati \/ Covington","municipality_arbic":"سينسيناتي \/ كوفينجتون","scheduled_service":"yes","icao_code":"KCVG","iata_code":"CVG","gps_code":"KCVG","local_code":"CVG"},{"id":"3483","ident":"KDCA","type":"large_airport","name":"Ronald Reagan Washington National Airport","name_arbic":"مطار رونالد ريغان الوطني في واشنطن","latitude_deg":"38.8521","longitude_deg":"-77.037697","elevation_ft":"15","continent":"nan","iso_country":"US","country":"United States","country_arbic":"الولايات المتحدة","iso_region":"US-DC","municipality":"Washington","municipality_arbic":"واشنطن","scheduled_service":"yes","icao_code":"KDCA","iata_code":"DCA","gps_code":"KDCA","local_code":"DCA"},{"id":"3486","ident":"KDEN","type":"large_airport","name":"Denver International Airport","name_arbic":"مطار دنفر الدولي","latitude_deg":"39.86169815","longitude_deg":"-104.6729965","elevation_ft":"5431","continent":"nan","iso_country":"US","country":"United States","country_arbic":"الولايات المتحدة","iso_region":"US-CO","municipality":"Denver","municipality_arbic":"دنفر","scheduled_service":"yes","icao_code":"KDEN","iata_code":"DEN","gps_code":"KDEN","local_code":"DEN"},{"id":"3488","ident":"KDFW","type":"large_airport","name":"Dallas Fort Worth International Airport","name_arbic":"مطار دالاس فورت وورث الدولي","latitude_deg":"32.896801","longitude_deg":"-97.038002","elevation_ft":"607","continent":"nan","iso_country":"US","country":"United States","country_arbic":"الولايات المتحدة","iso_region":"US-TX","municipality":"Dallas-Fort Worth","municipality_arbic":"دالاس-فورت وورث","scheduled_service":"yes","icao_code":"KDFW","iata_code":"DFW","gps_code":"KDFW","local_code":"DFW"},{"id":"3497","ident":"KDTW","type":"large_airport","name":"Detroit Metropolitan Wayne County Airport","name_arbic":"مطار ديترويت متروبوليتان مقاطعة واين","latitude_deg":"42.21377","longitude_deg":"-83.353786","elevation_ft":"645","continent":"nan","iso_country":"US","country":"United States","country_arbic":"الولايات المتحدة","iso_region":"US-MI","municipality":"Detroit","municipality_arbic":"ديترويت","scheduled_service":"yes","icao_code":"KDTW","iata_code":"DTW","gps_code":"KDTW","local_code":"DTW"},{"id":"3521","ident":"KEWR","type":"large_airport","name":"Newark Liberty International Airport","name_arbic":"مطار نيوارك ليبرتي الدولي","latitude_deg":"40.692501","longitude_deg":"-74.168701","elevation_ft":"18","continent":"nan","iso_country":"US","country":"United States","country_arbic":"الولايات المتحدة","iso_region":"US-NJ","municipality":"Newark","municipality_arbic":"نيوارك","scheduled_service":"yes","icao_code":"KEWR","iata_code":"EWR","gps_code":"KEWR","local_code":"EWR"},{"id":"3531","ident":"KFLL","type":"large_airport","name":"Fort Lauderdale Hollywood International Airport","name_arbic":"مطار فورت لودرديل هوليوود الدولي","latitude_deg":"26.072599","longitude_deg":"-80.152702","elevation_ft":"9","continent":"nan","iso_country":"US","country":"United States","country_arbic":"الولايات المتحدة","iso_region":"US-FL","municipality":"Fort Lauderdale","municipality_arbic":"فورت لودرديل","scheduled_service":"yes","icao_code":"KFLL","iata_code":"FLL","gps_code":"KFLL","local_code":"FLL"},{"id":"3602","ident":"KIAD","type":"large_airport","name":"Washington Dulles International Airport","name_arbic":"مطار واشنطن دولس الدولي","latitude_deg":"38.9445","longitude_deg":"-77.455803","elevation_ft":"312","continent":"nan","iso_country":"US","country":"United States","country_arbic":"الولايات المتحدة","iso_region":"US-VA","municipality":"Dulles","municipality_arbic":"دالاس","scheduled_service":"yes","icao_code":"KIAD","iata_code":"IAD","gps_code":"KIAD","local_code":"IAD"},{"id":"3604","ident":"KIAH","type":"large_airport","name":"George Bush Intercontinental Houston Airport","name_arbic":"مطار جورج بوش الدولي في هيوستن","latitude_deg":"29.9843998","longitude_deg":"-95.34140015","elevation_ft":"97","continent":"nan","iso_country":"US","country":"United States","country_arbic":"الولايات المتحدة","iso_region":"US-TX","municipality":"Houston","municipality_arbic":"هيوستن","scheduled_service":"yes","icao_code":"KIAH","iata_code":"IAH","gps_code":"KIAH","local_code":"IAH"},{"id":"3610","ident":"KIND","type":"large_airport","name":"Indianapolis International Airport","name_arbic":"مطار إنديانابوليس الدولي","latitude_deg":"39.7173","longitude_deg":"-86.294403","elevation_ft":"797","continent":"nan","iso_country":"US","country":"United States","country_arbic":"الولايات المتحدة","iso_region":"US-IN","municipality":"Indianapolis","municipality_arbic":"إنديانابوليس","scheduled_service":"yes","icao_code":"KIND","iata_code":"IND","gps_code":"KIND","local_code":"IND"},{"id":"3620","ident":"KJAX","type":"large_airport","name":"Jacksonville International Airport","name_arbic":"مطار جاكسونفيل الدولي","latitude_deg":"30.492469","longitude_deg":"-81.687813","elevation_ft":"30","continent":"nan","iso_country":"US","country":"United States","country_arbic":"الولايات المتحدة","iso_region":"US-FL","municipality":"Jacksonville","municipality_arbic":"جاكسونفيل","scheduled_service":"yes","icao_code":"KJAX","iata_code":"JAX","gps_code":"KJAX","local_code":"JAX"},{"id":"3622","ident":"KJFK","type":"large_airport","name":"John F Kennedy International Airport","name_arbic":"مطار جون إف كينيدي الدولي","latitude_deg":"40.639447","longitude_deg":"-73.779317","elevation_ft":"13","continent":"nan","iso_country":"US","country":"United States","country_arbic":"الولايات المتحدة","iso_region":"US-NY","municipality":"New York","municipality_arbic":"نيويورك","scheduled_service":"yes","icao_code":"KJFK","iata_code":"JFK","gps_code":"KJFK","local_code":"JFK"},{"id":"3631","ident":"KLAS","type":"large_airport","name":"Harry Reid International Airport","name_arbic":"مطار هاري ريد الدولي","latitude_deg":"36.083361","longitude_deg":"-115.151817","elevation_ft":"2181","continent":"nan","iso_country":"US","country":"United States","country_arbic":"الولايات المتحدة","iso_region":"US-NV","municipality":"Las Vegas","municipality_arbic":"لاس فيغاس","scheduled_service":"yes","icao_code":"KLAS","iata_code":"LAS","gps_code":"KLAS","local_code":"LAS"},{"id":"3632","ident":"KLAX","type":"large_airport","name":"Los Angeles International Airport","name_arbic":"مطار لوس أنجلوس الدولي","latitude_deg":"33.942501","longitude_deg":"-118.407997","elevation_ft":"125","continent":"nan","iso_country":"US","country":"United States","country_arbic":"الولايات المتحدة","iso_region":"US-CA","municipality":"Los Angeles","municipality_arbic":"لوس أنجلوس","scheduled_service":"yes","icao_code":"KLAX","iata_code":"LAX","gps_code":"KLAX","local_code":"LAX"},{"id":"3643","ident":"KLGA","type":"large_airport","name":"LaGuardia Airport","name_arbic":"مطار لاغوارديا","latitude_deg":"40.777199","longitude_deg":"-73.872597","elevation_ft":"21","continent":"nan","iso_country":"US","country":"United States","country_arbic":"الولايات المتحدة","iso_region":"US-NY","municipality":"New York","municipality_arbic":"نيويورك","scheduled_service":"yes","icao_code":"KLGA","iata_code":"LGA","gps_code":"KLGA","local_code":"LGA"},{"id":"3668","ident":"KMCI","type":"large_airport","name":"Kansas City International Airport","name_arbic":"مطار كانساس سيتي الدولي","latitude_deg":"39.2976","longitude_deg":"-94.713898","elevation_ft":"1026","continent":"nan","iso_country":"US","country":"United States","country_arbic":"الولايات المتحدة","iso_region":"US-MO","municipality":"Kansas City","municipality_arbic":"مدينة كانساس سيتي","scheduled_service":"yes","icao_code":"KMCI","iata_code":"MCI","gps_code":"KMCI","local_code":"MCI"},{"id":"3670","ident":"KMCO","type":"large_airport","name":"Orlando International Airport","name_arbic":"مطار أورلاندو الدولي","latitude_deg":"28.42939949","longitude_deg":"-81.30899811","elevation_ft":"96","continent":"nan","iso_country":"US","country":"United States","country_arbic":"الولايات المتحدة","iso_region":"US-FL","municipality":"Orlando","municipality_arbic":"أورلاندو","scheduled_service":"yes","icao_code":"KMCO","iata_code":"MCO","gps_code":"KMCO","local_code":"MCO"},{"id":"3673","ident":"KMDW","type":"large_airport","name":"Chicago Midway International Airport","name_arbic":"مطار شيكاغو ميدواي الدولي","latitude_deg":"41.785999","longitude_deg":"-87.752403","elevation_ft":"620","continent":"nan","iso_country":"US","country":"United States","country_arbic":"الولايات المتحدة","iso_region":"US-IL","municipality":"Chicago","municipality_arbic":"شيكاغو","scheduled_service":"yes","icao_code":"KMDW","iata_code":"MDW","gps_code":"KMDW","local_code":"MDW"},{"id":"3675","ident":"KMEM","type":"large_airport","name":"Memphis International Airport","name_arbic":"مطار ممفيس الدولي","latitude_deg":"35.0424","longitude_deg":"-89.9767","elevation_ft":"341","continent":"nan","iso_country":"US","country":"United States","country_arbic":"الولايات المتحدة","iso_region":"US-TN","municipality":"Memphis","municipality_arbic":"ممفيس","scheduled_service":"yes","icao_code":"KMEM","iata_code":"MEM","gps_code":"KMEM","local_code":"MEM"},{"id":"3685","ident":"KMIA","type":"large_airport","name":"Miami International Airport","name_arbic":"مطار ميامي الدولي","latitude_deg":"25.79319954","longitude_deg":"-80.29060364","elevation_ft":"8","continent":"nan","iso_country":"US","country":"United States","country_arbic":"الولايات المتحدة","iso_region":"US-FL","municipality":"Miami","municipality_arbic":"ميامي","scheduled_service":"yes","icao_code":"KMIA","iata_code":"MIA","gps_code":"KMIA","local_code":"MIA"},{"id":"3690","ident":"KMKE","type":"large_airport","name":"General Mitchell International Airport","name_arbic":"مطار الجنرال ميتشل الدولي","latitude_deg":"42.947201","longitude_deg":"-87.896599","elevation_ft":"723","continent":"nan","iso_country":"US","country":"United States","country_arbic":"الولايات المتحدة","iso_region":"US-WI","municipality":"Milwaukee","municipality_arbic":"ميلووكي","scheduled_service":"yes","icao_code":"KMKE","iata_code":"MKE","gps_code":"KMKE","local_code":"MKE"},{"id":"3709","ident":"KMSP","type":"large_airport","name":"Minneapolis–Saint Paul International Airport \/ Wold–Chamberlain Field","name_arbic":"مطار مينيابوليس-سانت بول الدولي \/ ملعب وولد-تشامبرلين","latitude_deg":"44.880081","longitude_deg":"-93.221741","elevation_ft":"841","continent":"nan","iso_country":"US","country":"United States","country_arbic":"الولايات المتحدة","iso_region":"US-MN","municipality":"Minneapolis","municipality_arbic":"مينيابوليس","scheduled_service":"yes","icao_code":"KMSP","iata_code":"MSP","gps_code":"KMSP","local_code":"MSP"},{"id":"3711","ident":"KMSY","type":"large_airport","name":"Louis Armstrong New Orleans International Airport","name_arbic":"مطار لويس أرمسترونج نيو أورليانز الدولي","latitude_deg":"29.993401","longitude_deg":"-90.258003","elevation_ft":"4","continent":"nan","iso_country":"US","country":"United States","country_arbic":"الولايات المتحدة","iso_region":"US-LA","municipality":"New Orleans","municipality_arbic":"نيو أورليانز","scheduled_service":"yes","icao_code":"KMSY","iata_code":"MSY","gps_code":"KMSY","local_code":"MSY"},{"id":"3744","ident":"KOAK","type":"large_airport","name":"San Francisco Bay Oakland International Airport","name_arbic":"مطار سان فرانسيسكو باي أوكلاند الدولي","latitude_deg":"37.720085","longitude_deg":"-122.221184","elevation_ft":"9","continent":"nan","iso_country":"US","country":"United States","country_arbic":"الولايات المتحدة","iso_region":"US-CA","municipality":"Oakland","municipality_arbic":"أوكلاند","scheduled_service":"yes","icao_code":"KOAK","iata_code":"OAK","gps_code":"KOAK","local_code":"OAK"},{"id":"3747","ident":"KOKC","type":"large_airport","name":"Will Rogers World Airport","name_arbic":"مطار ويل روجرز العالمي","latitude_deg":"35.393388","longitude_deg":"-97.598248","elevation_ft":"1295","continent":"nan","iso_country":"US","country":"United States","country_arbic":"الولايات المتحدة","iso_region":"US-OK","municipality":"Oklahoma City","municipality_arbic":"مدينة أوكلاهوما","scheduled_service":"yes","icao_code":"KOKC","iata_code":"OKC","gps_code":"KOKC","local_code":"OKC"},{"id":"3751","ident":"KOMA","type":"large_airport","name":"Eppley Airfield","name_arbic":"مطار إيبلي","latitude_deg":"41.3032","longitude_deg":"-95.894096","elevation_ft":"984","continent":"nan","iso_country":"US","country":"United States","country_arbic":"الولايات المتحدة","iso_region":"US-NE","municipality":"Omaha","municipality_arbic":"أوماها","scheduled_service":"yes","icao_code":"KOMA","iata_code":"OMA","gps_code":"KOMA","local_code":"OMA"},{"id":"3752","ident":"KONT","type":"large_airport","name":"Ontario International Airport","name_arbic":"مطار أونتاريو الدولي","latitude_deg":"34.056","longitude_deg":"-117.600998","elevation_ft":"944","continent":"nan","iso_country":"US","country":"United States","country_arbic":"الولايات المتحدة","iso_region":"US-CA","municipality":"Ontario","municipality_arbic":"أونتاريو","scheduled_service":"yes","icao_code":"KONT","iata_code":"ONT","gps_code":"KONT","local_code":"ONT"},{"id":"3754","ident":"KORD","type":"large_airport","name":"Chicago O'Hare International Airport","name_arbic":"مطار شيكاغو أوهير الدولي","latitude_deg":"41.9786","longitude_deg":"-87.9048","elevation_ft":"680","continent":"nan","iso_country":"US","country":"United States","country_arbic":"الولايات المتحدة","iso_region":"US-IL","municipality":"Chicago","municipality_arbic":"شيكاغو","scheduled_service":"yes","icao_code":"KORD","iata_code":"ORD","gps_code":"KORD","local_code":"ORD"},{"id":"3755","ident":"KORF","type":"large_airport","name":"Norfolk International Airport","name_arbic":"مطار نورفولك الدولي","latitude_deg":"36.895341","longitude_deg":"-76.201","elevation_ft":"26","continent":"nan","iso_country":"US","country":"United States","country_arbic":"الولايات المتحدة","iso_region":"US-VA","municipality":"Norfolk","municipality_arbic":"نورفولك","scheduled_service":"yes","icao_code":"KORF","iata_code":"ORF","gps_code":"KORF","local_code":"ORF"},{"id":"3766","ident":"KPBI","type":"large_airport","name":"Palm Beach International Airport","name_arbic":"مطار بالم بيتش الدولي","latitude_deg":"26.683201","longitude_deg":"-80.095596","elevation_ft":"19","continent":"nan","iso_country":"US","country":"United States","country_arbic":"الولايات المتحدة","iso_region":"US-FL","municipality":"West Palm Beach","municipality_arbic":"ويست بالم بيتش","scheduled_service":"yes","icao_code":"KPBI","iata_code":"PBI","gps_code":"KPBI","local_code":"PBI"},{"id":"3768","ident":"KPDX","type":"large_airport","name":"Portland International Airport","name_arbic":"مطار بورتلاند الدولي","latitude_deg":"45.588699","longitude_deg":"-122.598","elevation_ft":"31","continent":"nan","iso_country":"US","country":"United States","country_arbic":"الولايات المتحدة","iso_region":"US-OR","municipality":"Portland","municipality_arbic":"بورتلاند","scheduled_service":"yes","icao_code":"KPDX","iata_code":"PDX","gps_code":"KPDX","local_code":"PDX"},{"id":"3771","ident":"KPHL","type":"large_airport","name":"Philadelphia International Airport","name_arbic":"مطار فيلادلفيا الدولي","latitude_deg":"39.871899","longitude_deg":"-75.241096","elevation_ft":"36","continent":"nan","iso_country":"US","country":"United States","country_arbic":"الولايات المتحدة","iso_region":"US-PA","municipality":"Philadelphia","municipality_arbic":"فيلادلفيا","scheduled_service":"yes","icao_code":"KPHL","iata_code":"PHL","gps_code":"KPHL","local_code":"PHL"},{"id":"3772","ident":"KPHX","type":"large_airport","name":"Phoenix Sky Harbor International Airport","name_arbic":"مطار فينيكس سكاي هاربر الدولي","latitude_deg":"33.435302","longitude_deg":"-112.005905","elevation_ft":"1135","continent":"nan","iso_country":"US","country":"United States","country_arbic":"الولايات المتحدة","iso_region":"US-AZ","municipality":"Phoenix","municipality_arbic":"فينيكس","scheduled_service":"yes","icao_code":"KPHX","iata_code":"PHX","gps_code":"KPHX","local_code":"PHX"},{"id":"3778","ident":"KPIT","type":"large_airport","name":"Pittsburgh International Airport","name_arbic":"مطار بيتسبرغ الدولي","latitude_deg":"40.491501","longitude_deg":"-80.232903","elevation_ft":"1203","continent":"nan","iso_country":"US","country":"United States","country_arbic":"الولايات المتحدة","iso_region":"US-PA","municipality":"Pittsburgh","municipality_arbic":"بيتسبرغ","scheduled_service":"yes","icao_code":"KPIT","iata_code":"PIT","gps_code":"KPIT","local_code":"PIT"},{"id":"3795","ident":"KPVD","type":"large_airport","name":"Theodore Francis Green State Airport","name_arbic":"مطار ثيودور فرانسيس جرين ستيت","latitude_deg":"41.725038","longitude_deg":"-71.425668","elevation_ft":"55","continent":"nan","iso_country":"US","country":"United States","country_arbic":"الولايات المتحدة","iso_region":"US-RI","municipality":"Warwick","municipality_arbic":"وارويك","scheduled_service":"yes","icao_code":"KPVD","iata_code":"PVD","gps_code":"KPVD","local_code":"PVD"},{"id":"3796","ident":"KPWM","type":"large_airport","name":"Portland International Jetport","name_arbic":"مطار بورتلاند الدولي للطائرات","latitude_deg":"43.646198","longitude_deg":"-70.309303","elevation_ft":"76","continent":"nan","iso_country":"US","country":"United States","country_arbic":"الولايات المتحدة","iso_region":"US-ME","municipality":"Portland","municipality_arbic":"بورتلاند","scheduled_service":"yes","icao_code":"KPWM","iata_code":"PWM","gps_code":"KPWM","local_code":"PWM"},{"id":"3844","ident":"KRDU","type":"large_airport","name":"Raleigh Durham International Airport","name_arbic":"مطار رالي دورهام الدولي","latitude_deg":"35.877602","longitude_deg":"-78.787498","elevation_ft":"435","continent":"nan","iso_country":"US","country":"United States","country_arbic":"الولايات المتحدة","iso_region":"US-NC","municipality":"Raleigh\/Durham","municipality_arbic":"رالي\/دورهام","scheduled_service":"yes","icao_code":"KRDU","iata_code":"RDU","gps_code":"KRDU","local_code":"RDU"},{"id":"3847","ident":"KRIC","type":"large_airport","name":"Richmond International Airport","name_arbic":"مطار ريتشموند الدولي","latitude_deg":"37.505199","longitude_deg":"-77.319702","elevation_ft":"167","continent":"nan","iso_country":"US","country":"United States","country_arbic":"الولايات المتحدة","iso_region":"US-VA","municipality":"Richmond","municipality_arbic":"ريتشموند","scheduled_service":"yes","icao_code":"KRIC","iata_code":"RIC","gps_code":"KRIC","local_code":"RIC"},{"id":"3853","ident":"KRNO","type":"large_airport","name":"Reno Tahoe International Airport","name_arbic":"مطار رينو تاهو الدولي","latitude_deg":"39.4991","longitude_deg":"-119.767998","elevation_ft":"4415","continent":"nan","iso_country":"US","country":"United States","country_arbic":"الولايات المتحدة","iso_region":"US-NV","municipality":"Reno","municipality_arbic":"رينو","scheduled_service":"yes","icao_code":"KRNO","iata_code":"RNO","gps_code":"KRNO","local_code":"RNO"},{"id":"3858","ident":"KRSW","type":"large_airport","name":"Southwest Florida International Airport","name_arbic":"مطار جنوب غرب فلوريدا الدولي","latitude_deg":"26.53619957","longitude_deg":"-81.75520325","elevation_ft":"30","continent":"nan","iso_country":"US","country":"United States","country_arbic":"الولايات المتحدة","iso_region":"US-FL","municipality":"Fort Myers","municipality_arbic":"فورت مايرز","scheduled_service":"yes","icao_code":"KRSW","iata_code":"RSW","gps_code":"KRSW","local_code":"RSW"},{"id":"3862","ident":"KSAN","type":"large_airport","name":"San Diego International Airport","name_arbic":"مطار سان دييغو الدولي","latitude_deg":"32.73360062","longitude_deg":"-117.1900024","elevation_ft":"17","continent":"nan","iso_country":"US","country":"United States","country_arbic":"الولايات المتحدة","iso_region":"US-CA","municipality":"San Diego","municipality_arbic":"سان دييغو","scheduled_service":"yes","icao_code":"KSAN","iata_code":"SAN","gps_code":"KSAN","local_code":"SAN"},{"id":"3863","ident":"KSAT","type":"large_airport","name":"San Antonio International Airport","name_arbic":"مطار سان أنطونيو الدولي","latitude_deg":"29.533701","longitude_deg":"-98.469803","elevation_ft":"809","continent":"nan","iso_country":"US","country":"United States","country_arbic":"الولايات المتحدة","iso_region":"US-TX","municipality":"San Antonio","municipality_arbic":"سان أنطونيو","scheduled_service":"yes","icao_code":"KSAT","iata_code":"SAT","gps_code":"KSAT","local_code":"SAT"},{"id":"3864","ident":"KSAV","type":"large_airport","name":"Savannah Hilton Head International Airport","name_arbic":"مطار سافانا هيلتون هيد الدولي","latitude_deg":"32.127602","longitude_deg":"-81.202103","elevation_ft":"50","continent":"nan","iso_country":"US","country":"United States","country_arbic":"الولايات المتحدة","iso_region":"US-GA","municipality":"Savannah","municipality_arbic":"سافانا","scheduled_service":"yes","icao_code":"KSAV","iata_code":"SAV","gps_code":"KSAV","local_code":"SAV"},{"id":"3873","ident":"KSDF","type":"large_airport","name":"Louisville Muhammad Ali International Airport","name_arbic":"مطار لويزفيل محمد علي الدولي","latitude_deg":"38.1744","longitude_deg":"-85.736","elevation_ft":"501","continent":"nan","iso_country":"US","country":"United States","country_arbic":"الولايات المتحدة","iso_region":"US-KY","municipality":"Louisville","municipality_arbic":"لويزفيل","scheduled_service":"yes","icao_code":"KSDF","iata_code":"SDF","gps_code":"KSDF","local_code":"SDF"},{"id":"3875","ident":"KSEA","type":"large_airport","name":"Seattle–Tacoma International Airport","name_arbic":"مطار سياتل تاكوما الدولي","latitude_deg":"47.447943","longitude_deg":"-122.310276","elevation_ft":"433","continent":"nan","iso_country":"US","country":"United States","country_arbic":"الولايات المتحدة","iso_region":"US-WA","municipality":"Seattle","municipality_arbic":"سياتل","scheduled_service":"yes","icao_code":"KSEA","iata_code":"SEA","gps_code":"KSEA","local_code":"SEA"},{"id":"3876","ident":"KSFB","type":"large_airport","name":"Orlando Sanford International Airport","name_arbic":"مطار أورلاندو سانفورد الدولي","latitude_deg":"28.77759933","longitude_deg":"-81.23750305","elevation_ft":"55","continent":"nan","iso_country":"US","country":"United States","country_arbic":"الولايات المتحدة","iso_region":"US-FL","municipality":"Orlando","municipality_arbic":"أورلاندو","scheduled_service":"yes","icao_code":"KSFB","iata_code":"SFB","gps_code":"KSFB","local_code":"SFB"},{"id":"3878","ident":"KSFO","type":"large_airport","name":"San Francisco International Airport","name_arbic":"مطار سان فرانسيسكو الدولي","latitude_deg":"37.619806","longitude_deg":"-122.374821","elevation_ft":"13","continent":"nan","iso_country":"US","country":"United States","country_arbic":"الولايات المتحدة","iso_region":"US-CA","municipality":"San Francisco","municipality_arbic":"سان فرانسيسكو","scheduled_service":"yes","icao_code":"KSFO","iata_code":"SFO","gps_code":"KSFO","local_code":"SFO"},{"id":"3883","ident":"KSJC","type":"large_airport","name":"Norman Y. Mineta San Jose International Airport","name_arbic":"مطار نورمان واي مينيتا سان خوسيه الدولي","latitude_deg":"37.362452","longitude_deg":"-121.929188","elevation_ft":"62","continent":"nan","iso_country":"US","country":"United States","country_arbic":"الولايات المتحدة","iso_region":"US-CA","municipality":"San Jose","municipality_arbic":"سان خوسيه","scheduled_service":"yes","icao_code":"KSJC","iata_code":"SJC","gps_code":"KSJC","local_code":"SJC"},{"id":"3887","ident":"KSLC","type":"large_airport","name":"Salt Lake City International Airport","name_arbic":"مطار سولت ليك سيتي الدولي","latitude_deg":"40.78886","longitude_deg":"-111.979866","elevation_ft":"4227","continent":"nan","iso_country":"US","country":"United States","country_arbic":"الولايات المتحدة","iso_region":"US-UT","municipality":"Salt Lake City","municipality_arbic":"سولت ليك سيتي","scheduled_service":"yes","icao_code":"KSLC","iata_code":"SLC","gps_code":"KSLC","local_code":"SLC"},{"id":"3892","ident":"KSMF","type":"large_airport","name":"Sacramento International Airport","name_arbic":"مطار ساكرامنتو الدولي","latitude_deg":"38.6954","longitude_deg":"-121.591003","elevation_ft":"27","continent":"nan","iso_country":"US","country":"United States","country_arbic":"الولايات المتحدة","iso_region":"US-CA","municipality":"Sacramento","municipality_arbic":"ساكرامنتو","scheduled_service":"yes","icao_code":"KSMF","iata_code":"SMF","gps_code":"KSMF","local_code":"SMF"},{"id":"3894","ident":"KSNA","type":"large_airport","name":"John Wayne Orange County International Airport","name_arbic":"مطار جون واين أورانج كاونتي الدولي","latitude_deg":"33.675701","longitude_deg":"-117.867996","elevation_ft":"56","continent":"nan","iso_country":"US","country":"United States","country_arbic":"الولايات المتحدة","iso_region":"US-CA","municipality":"Santa Ana","municipality_arbic":"سانتا آنا","scheduled_service":"yes","icao_code":"KSNA","iata_code":"SNA","gps_code":"KSNA","local_code":"SNA"},{"id":"3899","ident":"KSRQ","type":"large_airport","name":"Sarasota Bradenton International Airport","name_arbic":"مطار ساراسوتا برادنتون الدولي","latitude_deg":"27.394631","longitude_deg":"-82.554359","elevation_ft":"30","continent":"nan","iso_country":"US","country":"United States","country_arbic":"الولايات المتحدة","iso_region":"US-FL","municipality":"Sarasota\/Bradenton","municipality_arbic":"ساراسوتا\/برادنتون","scheduled_service":"yes","icao_code":"KSRQ","iata_code":"SRQ","gps_code":"KSRQ","local_code":"SRQ"},{"id":"3905","ident":"KSTL","type":"large_airport","name":"St. Louis Lambert International Airport","name_arbic":"مطار سانت لويس لامبرت الدولي","latitude_deg":"38.748697","longitude_deg":"-90.370003","elevation_ft":"618","continent":"nan","iso_country":"US","country":"United States","country_arbic":"الولايات المتحدة","iso_region":"US-MO","municipality":"St Louis","municipality_arbic":"سانت لويس","scheduled_service":"yes","icao_code":"KSTL","iata_code":"STL","gps_code":"KSTL","local_code":"STL"},{"id":"3913","ident":"KSYR","type":"large_airport","name":"Syracuse Hancock International Airport","name_arbic":"مطار سيراكيوز هانكوك الدولي","latitude_deg":"43.11119843","longitude_deg":"-76.10630035","elevation_ft":"421","continent":"nan","iso_country":"US","country":"United States","country_arbic":"الولايات المتحدة","iso_region":"US-NY","municipality":"Syracuse","municipality_arbic":"سيراكيوز","scheduled_service":"yes","icao_code":"KSYR","iata_code":"SYR","gps_code":"KSYR","local_code":"SYR"},{"id":"3926","ident":"KTPA","type":"large_airport","name":"Tampa International Airport","name_arbic":"مطار تامبا الدولي","latitude_deg":"27.9755","longitude_deg":"-82.533203","elevation_ft":"26","continent":"nan","iso_country":"US","country":"United States","country_arbic":"الولايات المتحدة","iso_region":"US-FL","municipality":"Tampa","municipality_arbic":"تامبا","scheduled_service":"yes","icao_code":"KTPA","iata_code":"TPA","gps_code":"KTPA","local_code":"TPA"},{"id":"3930","ident":"KTUL","type":"large_airport","name":"Tulsa International Airport","name_arbic":"مطار تولسا الدولي","latitude_deg":"36.19839859","longitude_deg":"-95.88809967","elevation_ft":"677","continent":"nan","iso_country":"US","country":"United States","country_arbic":"الولايات المتحدة","iso_region":"US-OK","municipality":"Tulsa","municipality_arbic":"تولسا","scheduled_service":"yes","icao_code":"KTUL","iata_code":"TUL","gps_code":"KTUL","local_code":"TUL"},{"id":"3972","ident":"LATI","type":"large_airport","name":"Tirana International Airport Mother Teresa","name_arbic":"مطار تيرانا الدولي الأم تيريزا","latitude_deg":"41.4147","longitude_deg":"19.7206","elevation_ft":"126","continent":"EU","iso_country":"AL","country":"Albania","country_arbic":"ألبانيا","iso_region":"AL-02","municipality":"Rinas","municipality_arbic":"ريناس","scheduled_service":"yes","icao_code":"LATI","iata_code":"TIA","gps_code":"LATI","local_code":"nan"},{"id":"3974","ident":"LBBG","type":"large_airport","name":"Burgas Airport","name_arbic":"مطار بورغاس","latitude_deg":"42.569917","longitude_deg":"27.515173","elevation_ft":"135","continent":"EU","iso_country":"BG","country":"Bulgaria","country_arbic":"بلغاريا","iso_region":"BG-02","municipality":"Burgas","municipality_arbic":"بورغاس","scheduled_service":"yes","icao_code":"LBBG","iata_code":"BOJ","gps_code":"LBBG","local_code":"nan"},{"id":"3977","ident":"LBSF","type":"large_airport","name":"Sofia Airport","name_arbic":"مطار صوفيا","latitude_deg":"42.696357","longitude_deg":"23.417671","elevation_ft":"1742","continent":"EU","iso_country":"BG","country":"Bulgaria","country_arbic":"بلغاريا","iso_region":"BG-22","municipality":"Sofia","municipality_arbic":"صوفيا","scheduled_service":"yes","icao_code":"LBSF","iata_code":"SOF","gps_code":"LBSF","local_code":"nan"},{"id":"3979","ident":"LBWN","type":"large_airport","name":"Varna Airport","name_arbic":"مطار فارنا","latitude_deg":"43.232101","longitude_deg":"27.8251","elevation_ft":"230","continent":"EU","iso_country":"BG","country":"Bulgaria","country_arbic":"بلغاريا","iso_region":"BG-03","municipality":"Varna","municipality_arbic":"فارنا","scheduled_service":"yes","icao_code":"LBWN","iata_code":"VAR","gps_code":"LBWN","local_code":"nan"},{"id":"3980","ident":"LCLK","type":"large_airport","name":"Larnaca International Airport","name_arbic":"مطار لارنكا الدولي","latitude_deg":"34.875099","longitude_deg":"33.624901","elevation_ft":"8","continent":"AS","iso_country":"CY","country":"Cyprus","country_arbic":"قبرص","iso_region":"CY-04","municipality":"Larnaca","municipality_arbic":"لارنكا","scheduled_service":"yes","icao_code":"LCLK","iata_code":"LCA","gps_code":"LCLK","local_code":"nan"},{"id":"3993","ident":"LDZA","type":"large_airport","name":"Zagreb Franjo Tuđman International Airport","name_arbic":"مطار زغرب فرانجو تودمان الدولي","latitude_deg":"45.742901","longitude_deg":"16.0688","elevation_ft":"353","continent":"EU","iso_country":"HR","country":"Croatia","country_arbic":"كرواتيا","iso_region":"HR-01","municipality":"Velika Gorica","municipality_arbic":"فيليكا جوريكا","scheduled_service":"yes","icao_code":"LDZA","iata_code":"ZAG","gps_code":"LDZA","local_code":"nan"},{"id":"3997","ident":"LEAL","type":"large_airport","name":"Alicante-Elche Miguel Hernández Airport","name_arbic":"مطار أليكانتي إلتشي ميغيل هيرنانديز","latitude_deg":"38.2822","longitude_deg":"-0.558156","elevation_ft":"142","continent":"EU","iso_country":"ES","country":"Spain","country_arbic":"إسبانيا","iso_region":"ES-VC","municipality":"Alicante","municipality_arbic":"أليكانتي","scheduled_service":"yes","icao_code":"LEAL","iata_code":"ALC","gps_code":"LEAL","local_code":"nan"},{"id":"4004","ident":"LEBL","type":"large_airport","name":"Josep Tarradellas Barcelona-El Prat Airport","name_arbic":"مطار جوزيب تاراديلاس برشلونة إلبرات","latitude_deg":"41.2971","longitude_deg":"2.07846","elevation_ft":"12","continent":"EU","iso_country":"ES","country":"Spain","country_arbic":"إسبانيا","iso_region":"ES-CT","municipality":"Barcelona","municipality_arbic":"برشلونة","scheduled_service":"yes","icao_code":"LEBL","iata_code":"BCN","gps_code":"LEBL","local_code":"nan"},{"id":"4013","ident":"LEIB","type":"large_airport","name":"Ibiza Airport","name_arbic":"مطار إيبيزا","latitude_deg":"38.872898","longitude_deg":"1.37312","elevation_ft":"24","continent":"EU","iso_country":"ES","country":"Spain","country_arbic":"إسبانيا","iso_region":"ES-IB","municipality":"Ibiza (Eivissa)","municipality_arbic":"إيبيزا (إيبيزا)","scheduled_service":"yes","icao_code":"LEIB","iata_code":"IBZ","gps_code":"LEIB","local_code":"nan"},{"id":"4019","ident":"LEMD","type":"large_airport","name":"Adolfo Suárez Madrid–Barajas Airport","name_arbic":"مطار أدولفو سواريز مدريد-باراخاس","latitude_deg":"40.471926","longitude_deg":"-3.56264","elevation_ft":"1998","continent":"EU","iso_country":"ES","country":"Spain","country_arbic":"إسبانيا","iso_region":"ES-MD","municipality":"Madrid","municipality_arbic":"مدريد","scheduled_service":"yes","icao_code":"LEMD","iata_code":"MAD","gps_code":"LEMD","local_code":"nan"},{"id":"4020","ident":"LEMG","type":"large_airport","name":"Málaga-Costa del Sol Airport","name_arbic":"مطار مالقة-كوستا ديل سول","latitude_deg":"36.6749","longitude_deg":"-4.49911","elevation_ft":"53","continent":"EU","iso_country":"ES","country":"Spain","country_arbic":"إسبانيا","iso_region":"ES-AN","municipality":"Málaga","municipality_arbic":"مالقة","scheduled_service":"yes","icao_code":"LEMG","iata_code":"AGP","gps_code":"LEMG","local_code":"nan"},{"id":"4035","ident":"LEPA","type":"large_airport","name":"Palma de Mallorca Airport","name_arbic":"مطار بالما دي مايوركا","latitude_deg":"39.551701","longitude_deg":"2.73881","elevation_ft":"27","continent":"EU","iso_country":"ES","country":"Spain","country_arbic":"إسبانيا","iso_region":"ES-IB","municipality":"Palma de Mallorca","municipality_arbic":"بالما دي مايوركا","scheduled_service":"yes","icao_code":"LEPA","iata_code":"PMI","gps_code":"LEPA","local_code":"nan"},{"id":"4038","ident":"LEST","type":"large_airport","name":"Santiago-Rosalía de Castro Airport","name_arbic":"مطار سانتياغو روزاليا دي كاسترو","latitude_deg":"42.896301","longitude_deg":"-8.41514","elevation_ft":"1213","continent":"EU","iso_country":"ES","country":"Spain","country_arbic":"إسبانيا","iso_region":"ES-GA","municipality":"Santiago de Compostela","municipality_arbic":"سانتياغو دي كومبوستيلا","scheduled_service":"yes","icao_code":"LEST","iata_code":"SCQ","gps_code":"LEST","local_code":"nan"},{"id":"4060","ident":"LFBD","type":"large_airport","name":"Bordeaux-Mérignac Airport","name_arbic":"مطار بوردو ميرينياك","latitude_deg":"44.8283","longitude_deg":"-0.715556","elevation_ft":"162","continent":"EU","iso_country":"FR","country":"France","country_arbic":"فرنسا","iso_region":"FR-NAQ","municipality":"Bordeaux\/Mérignac","municipality_arbic":"بوردو\/ميرينياك","scheduled_service":"yes","icao_code":"LFBD","iata_code":"BOD","gps_code":"LFBD","local_code":"nan"},{"id":"4070","ident":"LFBO","type":"large_airport","name":"Toulouse-Blagnac Airport","name_arbic":"مطار تولوز-بلانياك","latitude_deg":"43.629101","longitude_deg":"1.36382","elevation_ft":"499","continent":"EU","iso_country":"FR","country":"France","country_arbic":"فرنسا","iso_region":"FR-OCC","municipality":"Toulouse\/Blagnac","municipality_arbic":"تولوز\/بلانياك","scheduled_service":"yes","icao_code":"LFBO","iata_code":"TLS","gps_code":"LFBO","local_code":"nan"},{"id":"4137","ident":"LFLL","type":"large_airport","name":"Lyon Saint-Exupéry Airport","name_arbic":"مطار ليون سانت إكزوبيري","latitude_deg":"45.725996","longitude_deg":"5.090139","elevation_ft":"821","continent":"EU","iso_country":"FR","country":"France","country_arbic":"فرنسا","iso_region":"FR-ARA","municipality":"Colombier-Saugnieu, Rhône","municipality_arbic":"كولومبييه-سونيو، رون","scheduled_service":"yes","icao_code":"LFLL","iata_code":"LYS","gps_code":"LFLL","local_code":"nan"},{"id":"4155","ident":"LFML","type":"large_airport","name":"Marseille Provence Airport","name_arbic":"مطار مرسيليا بروفانس","latitude_deg":"43.438088","longitude_deg":"2125-05-01 00:00:00","elevation_ft":"74","continent":"EU","iso_country":"FR","country":"France","country_arbic":"فرنسا","iso_region":"FR-PAC","municipality":"Marignane, Bouches-du-Rhône","municipality_arbic":"مارينيان، بوش دو رون","scheduled_service":"yes","icao_code":"LFML","iata_code":"MRS","gps_code":"LFML","local_code":"nan"},{"id":"4156","ident":"LFMN","type":"large_airport","name":"Nice-Côte d'Azur Airport","name_arbic":"مطار نيس كوت دازور","latitude_deg":"43.658401","longitude_deg":"7.21587","elevation_ft":"12","continent":"EU","iso_country":"FR","country":"France","country_arbic":"فرنسا","iso_region":"FR-PAC","municipality":"Nice, Alpes-Maritimes","municipality_arbic":"نيس، الألب البحرية","scheduled_service":"yes","icao_code":"LFMN","iata_code":"NCE","gps_code":"LFMN","local_code":"nan"},{"id":"4185","ident":"LFPG","type":"large_airport","name":"Charles de Gaulle International Airport","name_arbic":"مطار شارل ديغول الدولي","latitude_deg":"49.012798","longitude_deg":"2.55","elevation_ft":"392","continent":"EU","iso_country":"FR","country":"France","country_arbic":"فرنسا","iso_region":"FR-IDF","municipality":"Paris (Roissy-en-France, Val-d'Oise)","municipality_arbic":"باريس (رويسي أون فرانس، فال دواز)","scheduled_service":"yes","icao_code":"LFPG","iata_code":"CDG","gps_code":"LFPG","local_code":"nan"},{"id":"4189","ident":"LFPO","type":"large_airport","name":"Paris-Orly Airport","name_arbic":"مطار باريس أورلي","latitude_deg":"48.72333","longitude_deg":"2.37944","elevation_ft":"291","continent":"EU","iso_country":"FR","country":"France","country_arbic":"فرنسا","iso_region":"FR-IDF","municipality":"Paris (Orly, Val-de-Marne)","municipality_arbic":"باريس (أورلي، فال دو مارن)","scheduled_service":"yes","icao_code":"LFPO","iata_code":"ORY","gps_code":"LFPO","local_code":"nan"},{"id":"4226","ident":"LFSB","type":"large_airport","name":"EuroAirport Basel-Mulhouse-Freiburg","name_arbic":"مطار يورو بازل-مولوز-فرايبورغ","latitude_deg":"47.60068","longitude_deg":"7.521117","elevation_ft":"885","continent":"EU","iso_country":"FR","country":"France","country_arbic":"فرنسا","iso_region":"FR-GES","municipality":"Saint-Louis","municipality_arbic":"سانت لويس","scheduled_service":"yes","icao_code":"LFSB","iata_code":"BSL","gps_code":"LFSB","local_code":"nan"},{"id":"4251","ident":"LGAV","type":"large_airport","name":"Athens Eleftherios Venizelos International Airport","name_arbic":"مطار أثينا إلفثيريوس فينيزيلوس الدولي","latitude_deg":"37.936401","longitude_deg":"23.9445","elevation_ft":"308","continent":"EU","iso_country":"GR","country":"Greece","country_arbic":"اليونان","iso_region":"GR-I","municipality":"Spata-Artemida","municipality_arbic":"سباتا-أرتيميدا","scheduled_service":"yes","icao_code":"LGAV","iata_code":"ATH","gps_code":"LGAV","local_code":"nan"},{"id":"4258","ident":"LGIR","type":"large_airport","name":"Heraklion International Nikos Kazantzakis Airport","name_arbic":"مطار هيراكليون الدولي نيكوس كازانتزاكيس","latitude_deg":"35.339699","longitude_deg":"25.1803","elevation_ft":"115","continent":"EU","iso_country":"GR","country":"Greece","country_arbic":"اليونان","iso_region":"GR-M","municipality":"Heraklion","municipality_arbic":"هيراكليون","scheduled_service":"yes","icao_code":"LGIR","iata_code":"HER","gps_code":"LGIR","local_code":"nan"},{"id":"4293","ident":"LGTS","type":"large_airport","name":"Thessaloniki Macedonia International Airport","name_arbic":"مطار سالونيك مقدونيا الدولي","latitude_deg":"40.51928","longitude_deg":"22.970009","elevation_ft":"22","continent":"EU","iso_country":"GR","country":"Greece","country_arbic":"اليونان","iso_region":"GR-B","municipality":"Thessaloniki","municipality_arbic":"تسالونيكي","scheduled_service":"yes","icao_code":"LGTS","iata_code":"SKG","gps_code":"LGTS","local_code":"nan"},{"id":"4296","ident":"LHBP","type":"large_airport","name":"Budapest Liszt Ferenc International Airport","name_arbic":"مطار بودابست ليزت فيرينك الدولي","latitude_deg":"47.43018","longitude_deg":"19.262393","elevation_ft":"495","continent":"EU","iso_country":"HU","country":"Hungary","country_arbic":"هنغاريا","iso_region":"HU-BU","municipality":"Budapest","municipality_arbic":"بودابست","scheduled_service":"yes","icao_code":"LHBP","iata_code":"BUD","gps_code":"LHBP","local_code":"nan"},{"id":"4310","ident":"LIBD","type":"large_airport","name":"Bari Karol Wojtyła International Airport","name_arbic":"مطار باري كارول فويتيلا الدولي","latitude_deg":"41.138901","longitude_deg":"16.760599","elevation_ft":"193","continent":"EU","iso_country":"IT","country":"Italy","country_arbic":"إيطاليا","iso_region":"IT-75","municipality":"Bari","municipality_arbic":"باري","scheduled_service":"yes","icao_code":"LIBD","iata_code":"BRI","gps_code":"LIBD","local_code":"BA02"},{"id":"4315","ident":"LIBR","type":"large_airport","name":"Brindisi Airport","name_arbic":"مطار برينديزي","latitude_deg":"40.6576","longitude_deg":"17.947001","elevation_ft":"47","continent":"EU","iso_country":"IT","country":"Italy","country_arbic":"إيطاليا","iso_region":"IT-75","municipality":"Brindisi","municipality_arbic":"برينديزي","scheduled_service":"yes","icao_code":"LIBR","iata_code":"BDS","gps_code":"LIBR","local_code":"BR03"},{"id":"4318","ident":"LICC","type":"large_airport","name":"Catania-Fontanarossa Airport","name_arbic":"مطار كاتانيا-فونتاناروسا","latitude_deg":"37.466801","longitude_deg":"15.0664","elevation_ft":"39","continent":"EU","iso_country":"IT","country":"Italy","country_arbic":"إيطاليا","iso_region":"IT-82","municipality":"Catania","municipality_arbic":"كاتانيا","scheduled_service":"yes","icao_code":"LICC","iata_code":"CTA","gps_code":"LICC","local_code":"CT03"},{"id":"4321","ident":"LICJ","type":"large_airport","name":"Falcone–Borsellino Airport","name_arbic":"مطار فالكوني-بورسيلينو","latitude_deg":"38.175999","longitude_deg":"13.091","elevation_ft":"65","continent":"EU","iso_country":"IT","country":"Italy","country_arbic":"إيطاليا","iso_region":"IT-82","municipality":"Palermo","municipality_arbic":"باليرمو","scheduled_service":"yes","icao_code":"LICJ","iata_code":"PMO","gps_code":"LICJ","local_code":"PA03"},{"id":"4332","ident":"LIEE","type":"large_airport","name":"Cagliari Elmas Airport","name_arbic":"مطار كالياري إلماس","latitude_deg":"39.251499","longitude_deg":"9.05428","elevation_ft":"13","continent":"EU","iso_country":"IT","country":"Italy","country_arbic":"إيطاليا","iso_region":"IT-88","municipality":"Cagliari","municipality_arbic":"كالياري","scheduled_service":"yes","icao_code":"LIEE","iata_code":"CAG","gps_code":"LIEE","local_code":"CA07"},